~Version ---------------------------------------------------
VERS.   2.0 : CWLS log ASCII Standard -VERSION 2.0
WRAP.    NO : One line per depth step
DLM . SPACE : Column Data Section Delimiter
~Well ------------------------------------------------------
STRT.ft 8440.00000 : START DEPTH
STOP.ft 8630.00000 : STOP DEPTH
STEP.ft    0.50000 : STEP
NULL.     -9999.25 : NULL VALUE
COMP.              : COMPANY
WELL.        HW-10 : 
FLD .        COSTA : 
LOC .              : LOCATION
PROV.              : PROVINCE
CNTY.              : COUNTY
STAT.              : STATE
CTRY.              : COUNTRY
SRVC.              : SERVICE COMPANY
DATE.              : DATE
UWI .        HW-10 : 
API .              : API NUMBER
~Curve Information -----------------------------------------
DEPT       .ft    : 
GR         .GAPI  : 
RHOB       .G/C3  : 
NPHI       .V/V   : 
DT         .US/F  : 
PHIE       .V/V   : 
RT         .OHMM  : 
SW         .V/V   : 
SO         .V/V   : 
CORE_POR   .%     : 
CORE_PERM  .mD    : 
PHIT       .V/V   : 
Rho_Matrix .G/C3  : 
BVO_Thomeer.V/V   : 
Sw_Thomeer .V/V   : 
Vol_Quartz .V/V   : 
Vol_Calcite.V/V   : 
Vol_dolo   .V/V   : 
Vol_Illite .V/V   : 
Pd1_knn    .psi   : 
Pd2_knn    .psi   : 
G1_knn     .      : 
G2_knn     .      : 
BV1_knn    .%     : 
BV2_knn    .%     : 
Perm_knn   .mD    : 
ROCK_INDEX .      : 
~Params ----------------------------------------------------
~Other -----------------------------------------------------
~ASCII -----------------------------------------------------
# ...
 8453.50000   33.70000    2.74000    0.02000   -9999.25    0.00000   19.01000   -9999.25   -9999.25   -9999.25   -9999.25    0.01744    2.77540    0.00200    0.88535    0.00000    0.83450    0.00098    0.14707  589.04924  650.00000    4.08583    0.10000   19.44872    0.00000    0.05795    3.00000
 8454.00000   33.63000    2.74000    0.02000   -9999.25    0.00000   13.16000   -9999.25   -9999.25   -9999.25   -9999.25    0.01744    2.77540    0.00200    0.88535    0.00000    0.83490    0.00098    0.14668  578.85812  650.00000    4.09703    0.10000   19.44758    0.00000    0.05642    3.00000
 8454.50000   32.20000    2.74000    0.03000   -9999.25    0.00000    9.28000   -9999.25   -9999.25   -9999.25   -9999.25    0.02254    2.78327    0.00200    0.91128    0.00000    0.83784    0.00098    0.13864  969.91697  650.00000    3.77939    0.10000   20.49060    0.00000    0.09452    3.00000
 8455.00000   28.05000    2.72000    0.06000   -9999.25    0.00000    6.84000   -9999.25   -9999.25   -9999.25   -9999.25    0.04181    2.78122    0.00102    0.97552    0.00000    0.84192    0.00096    0.11530   73.80228  650.00000    5.88715    0.10000   24.80808    0.00000    0.01795    3.00000
 8455.50000   22.87000    2.67000    0.09000   -9999.25    0.07000    5.27000   -9999.25   -9999.25   -9999.25   -9999.25    0.07233    2.78984    0.00100    0.98617    0.00000    0.84057    0.00093    0.08618  463.45396  650.00000    0.36437    0.10000    7.35266    0.00000    0.20466    1.00000
 8456.00000   18.52000    2.58000    0.13000   -9999.25    0.10000    4.19000    0.82000    0.18000   -9999.25   -9999.25    0.10951    2.76468    0.04351    0.60270    0.00000    0.82788    0.00089    0.06172  160.70824  650.00000    0.41453    0.10000   15.22166    0.00000    0.25195    3.00000
 8456.50000   15.76000    2.51000    0.15000   -9999.25    0.13000    3.41000    0.71000    0.29000   -9999.25   -9999.25    0.13950    2.72918    0.08027    0.42456    0.00000    0.81344    0.00086    0.04621  139.85477  650.00000    0.28517    0.10000   16.15565    0.00000    0.62705    3.00000
 8457.00000   13.67000    2.47000    0.16000   -9999.25    0.15000    2.86000    0.69000    0.31000   -9999.25   -9999.25    0.15458    2.71759    0.08887    0.42506    0.00000    0.81012    0.00085    0.03445  194.49364  650.00000    0.21382    0.10000   16.60147    0.00000    0.39576    3.00000
 8457.50000   12.44000    2.45000    0.17000   -9999.25    0.16000    2.50000    0.69000    0.31000   -9999.25   -9999.25    0.15939    2.72082    0.09781    0.38637    0.00000    0.76531    0.04776    0.02754   17.86268  650.00000    0.69958    0.10000   18.76768    0.00000    3.32070    1.00000
 8458.00000   13.04000    2.43000    0.17000   -9999.25    0.17000    2.29000    0.69000    0.31000   -9999.25   -9999.25    0.16902    2.70418    0.12616    0.25355    0.00000    0.79924    0.00083    0.03091  162.91909  650.00000    0.13944    0.10000   19.04059    0.00000    0.83116    3.00000
 8458.50000   14.64000    2.43000    0.17000   -9999.25    0.17000    2.19000    0.69000    0.31000   -9999.25   -9999.25    0.16902    2.70418    0.11550    0.31666    0.00000    0.79024    0.00083    0.03991  124.76931  650.00000    0.22518    0.10000   19.94153    0.00000    1.39095    3.00000
 8459.00000   16.24000    2.42000    0.17000   -9999.25    0.17000    2.17000    0.70000    0.30000   -9999.25   -9999.25    0.17399    2.69420    0.11965    0.31233    0.00000    0.77628    0.00083    0.04890   72.15492  650.00000    0.31623    0.10000   20.32588    0.00000    4.99486    1.00000
 8459.50000   17.39000    2.42000    0.16000   -9999.25    0.17000    2.21000    0.70000    0.30000   -9999.25   -9999.25    0.17139    2.69021    0.10657    0.37819    0.00000    0.77242    0.00083    0.05537   22.76497  650.00000    0.64118    0.10000   23.12097    0.00000   16.82954    1.00000
 8460.00000   18.71000    2.42000    0.16000   -9999.25    0.17000    2.34000    0.68000    0.32000   -9999.25   -9999.25    0.17139    2.69021    0.10525    0.38587    0.00000    0.76499    0.00083    0.06279   22.69392  650.00000    0.65736    0.10000   23.05451    0.00000   14.30467    1.00000
 8460.50000   20.40000    2.43000    0.16000   -9999.25    0.16000    2.58000    0.67000    0.33000   16.85000  130.94000    0.16677    2.69851    0.13533    0.18853    0.00000    0.76010    0.00083    0.07229    8.79325  650.00000    0.37287    0.10000   18.33487    0.00000  130.81026    1.00000
 8461.00000   21.76000    2.45000    0.16000   -9999.25    0.16000    2.90000    0.65000    0.35000   14.49000   74.18000    0.15631    2.69952    0.12724    0.18600    0.00000    0.76291    0.00084    0.07994   12.70113  650.00000    0.31718    0.10000   17.72851    0.00000   73.75558    1.00000
 8461.50000   21.64000    2.47000    0.15000   -9999.25    0.15000    3.28000    0.65000    0.35000   11.85000   17.32000    0.15312    2.70485    0.10204    0.33358    0.00000    0.76677    0.00085    0.07927   20.48746  650.00000    0.54226    0.10000   16.18879    0.00000   17.32169    1.00000
 8462.00000   19.95000    2.48000    0.14000   -9999.25    0.14000    3.69000    0.67000    0.33000    9.65000    6.89000    0.14162    2.70951    0.09839    0.30526    0.00000    0.78776    0.00086    0.06976   18.71789  650.00000    0.48215    0.10000   15.83913    0.00000    6.89040    1.00000
 8462.50000   18.72000    2.50000    0.12000   -9999.25    0.12000    4.10000    0.71000    0.29000    8.71000    0.04000    0.12830    2.69026    0.00734    0.94277    0.00000    0.80798    0.00087    0.06285  319.72339  650.00000    0.44555    0.10000   14.52839    0.00000    0.04011    3.00000
 8463.00000   18.63000    2.54000    0.11000   -9999.25    0.10000    4.48000    0.81000    0.19000   10.20000    0.12000    0.10163    2.70904    0.00235    0.97692    0.00000    0.83513    0.00090    0.06234  343.58489  650.00000    0.49674    0.10000   13.76022    0.00000    0.12022    3.00000
 8463.50000   18.30000    2.57000    0.10000   -9999.25    0.09000    4.70000    0.93000    0.07000   11.69000    0.19000    0.09754    2.71682    0.00200    0.97950    0.00000    0.84107    0.00090    0.06049  490.81212  650.00000    0.40070    0.10000   11.16712    0.00000    0.19007    3.00000
 8464.00000   16.74000    2.58000    0.09000   -9999.25    0.08000    4.66000    0.96000    0.04000   13.43000    0.22000    0.08620    2.72179    0.00200    0.97680    0.00000    0.78462    0.07746    0.05172  507.72309  650.00000    0.30615    0.10000    8.48790    0.00000    0.22000    3.00000
 8464.50000   14.37000    2.56000    0.11000   -9999.25    0.10000    4.40000    0.87000    0.13000   15.30000    0.22000    0.09925    2.71342    0.00200    0.97985    0.00000    0.66519    0.19717    0.03839  465.01623  650.00000    0.43744    0.10000   10.13053    0.00000    0.22000    3.00000
 8465.00000   12.37000    2.53000    0.13000   -9999.25    0.12000    4.04000    0.74000    0.26000   17.11000    0.89000    0.12349    2.73438    0.06967    0.43581    0.00000    0.61680    0.23257    0.02715   77.65716  650.00000    0.40597    0.10000   14.22665    0.00000    0.89081    3.00000
 8465.50000   11.06000    2.50000    0.16000   -9999.25    0.14000    3.69000    0.64000    0.36000   18.91000    1.56000    0.14044    2.72759    0.06893    0.50923    0.00000    0.58950    0.25028    0.01978   67.13815  650.00000    0.57074    0.10000   15.97087    0.00000    1.56003    3.00000
 8466.00000   10.72000    2.47000    0.18000   -9999.25    0.16000    3.43000    0.58000    0.42000   16.90000    1.37000    0.16915    2.74523    0.11335    0.32987    0.00000    0.67859    0.13440    0.01787  124.98109  650.00000    0.22454    0.10000   19.94031    0.00000    1.36999    3.00000
 8466.50000   11.14000    2.44000    0.19000   -9999.25    0.18000    3.23000    0.55000    0.45000   15.95000    1.36000    0.18220    2.74595    0.12650    0.30569    0.00000    0.76118    0.03639    0.02023  154.26347  650.00000    0.17504    0.10000   20.25176    0.00000    1.35996    3.00000
