~Version ---------------------------------------------------
VERS.   2.0 : CWLS log ASCII Standard -VERSION 2.0
WRAP.    NO : One line per depth step
DLM . SPACE : Column Data Section Delimiter
~Well ------------------------------------------------------
STRT.ft 8440.00000 : START DEPTH
STOP.ft 8630.00000 : STOP DEPTH
STEP.ft    0.50000 : STEP
NULL.     -9999.25 : NULL VALUE
COMP.              : COMPANY
WELL.        HW-10 : 
FLD .        COSTA : 
LOC .              : LOCATION
PROV.              : PROVINCE
CNTY.              : COUNTY
STAT.              : STATE
CTRY.              : COUNTRY
SRVC.              : SERVICE COMPANY
DATE.              : DATE
UWI .        HW-10 : 
API .              : API NUMBER
~Curve Information -----------------------------------------
DEPT       .ft    : 
GR         .GAPI  : 
RHOB       .G/C3  : 
NPHI       .V/V   : 
DT         .US/F  : 
PHIE       .V/V   : 
RT         .OHMM  : 
SW         .V/V   : 
SO         .V/V   : 
CORE_POR   .%     : 
CORE_PERM  .mD    : 
PHIT       .V/V   : 
Rho_Matrix .G/C3  : 
BVO_Thomeer.V/V   : 
Sw_Thomeer .V/V   : 
Vol_Quartz .V/V   : 
Vol_Calcite.V/V   : 
Vol_dolo   .V/V   : 
Vol_Illite .V/V   : 
Pd1_knn    .psi   : 
Pd2_knn    .psi   : 
G1_knn     .      : 
G2_knn     .      : 
BV1_knn    .%     : 
BV2_knn    .%     : 
Perm_knn   .mD    : 
ROCK_INDEX .      : 
~Params ----------------------------------------------------
~Other -----------------------------------------------------
~ASCII -----------------------------------------------------
# ...
 8575.00000    7.27000    2.27000    0.25000   -9999.25    0.26000    0.23000   -9999.25   -9999.25   26.80000    3.03000    0.26769    2.68338    0.00200    0.99253    0.00000    0.73231    0.00153   -0.00153  105.74944  650.00000    0.24857    0.10000   31.18331    0.00000    3.02670    1.00000
 8575.50000    7.33000    2.27000    0.25000   -9999.25    0.26000    0.23000   -9999.25   -9999.25   26.90000    2.92000    0.26769    2.68338    0.00200    0.99253    0.00000    0.73231    0.00119   -0.00119  106.80369  650.00000    0.24775    0.10000   31.14567    0.00000    2.91590    1.00000
 8576.00000    7.62000    2.28000    0.25000   -9999.25    0.25000    0.24000   -9999.25   -9999.25   26.71000    2.63000    0.25653    2.70093    0.00200    0.99220    0.00000    0.74228    0.00074    0.00044  137.51894  650.00000    0.16533    0.10000   28.45574    0.00000    2.62916    1.00000
 8576.50000    8.06000    2.29000    0.26000   -9999.25    0.25000    0.24000   -9999.25   -9999.25   26.53000    2.34000    0.25441    2.70430    0.00200    0.99214    0.00000    0.74193    0.00075    0.00291  142.26007  650.00000    0.16201    0.10000   28.33286    0.00000    2.68861    1.00000
 8577.00000    8.42000    2.30000    0.26000   -9999.25    0.25000    0.24000   -9999.25   -9999.25   28.60000    2.50000    0.25299    2.70651    0.00200    0.99209    0.00000    0.74132    0.00075    0.00494  146.15045  650.00000    0.14941    0.10000   24.91336    0.00000    2.50182    1.00000
 8577.50000    8.41000    2.30000    0.26000   -9999.25    0.25000    0.24000   -9999.25   -9999.25   31.10000    2.76000    0.25299    2.70651    0.00200    0.99209    0.00000    0.74138    0.00075    0.00488  141.87067  650.00000    0.15186    0.10000   24.73686    0.00000    2.75794    1.00000
 8578.00000    8.41000    2.31000    0.25000   -9999.25    0.25000    0.24000   -9999.25   -9999.25   28.45000    2.66000    0.25178    2.70802    0.00200    0.99206    0.00000    0.74259    0.00075    0.00488  146.86847  650.00000    0.14891    0.10000   24.85918    0.00000    2.65945    1.00000
 8578.50000    8.57000    2.31000    0.25000   -9999.25    0.25000    0.24000   -9999.25   -9999.25   26.45000    2.51000    0.25178    2.70802    0.00200    0.99206    0.00000    0.74169    0.00075    0.00578  149.74216  650.00000    0.14728    0.10000   24.99487    0.00000    2.50998    1.00000
 8579.00000    8.54000    2.30000    0.26000   -9999.25    0.25000    0.23000   -9999.25   -9999.25   25.72000    2.26000    0.25299    2.70651    0.00200    0.99209    0.00000    0.74065    0.00075    0.00561  149.55102  650.00000    0.14746    0.10000   25.04961    0.00000    2.26043    1.00000
 8579.50000    8.00000    2.30000    0.25000   -9999.25    0.25000    0.23000   -9999.25   -9999.25   25.20000    2.10000    0.25282    2.70629    0.00200    0.99209    0.00000    0.74386    0.00075    0.00258  148.69438  650.00000    0.14795    0.10000   25.00850    0.00000    2.37152    1.00000
 8580.00000    7.27000    2.30000    0.25000   -9999.25    0.25000    0.23000   -9999.25   -9999.25   25.85000    2.43000    0.25282    2.70629    0.00200    0.99209    0.00000    0.74718    0.00153   -0.00153  142.80087  650.00000    0.15131    0.10000   24.76081    0.00000    2.73014    1.00000
 8580.50000    7.09000    2.29000    0.24000   -9999.25    0.25000    0.23000   -9999.25   -9999.25   26.50000    2.76000    0.25441    2.70430    0.00200    0.99214    0.00000    0.74559    0.00254   -0.00254  141.16888  650.00000    0.16283    0.10000   28.34914    0.00000    2.75757    1.00000
 8581.00000    7.36000    2.28000    0.24000   -9999.25    0.25000    0.23000   -9999.25   -9999.25   25.67000    2.36000    0.25558    2.68828    0.00200    0.99217    0.00000    0.74442    0.00102   -0.00102  157.61950  650.00000    0.13939    0.10000   27.66281    0.00000    1.84490    3.00000
 8581.50000    7.30000    2.27000    0.25000   -9999.25    0.25000    0.23000   -9999.25   -9999.25   24.83000    1.96000    0.26769    2.68338    0.00200    0.99253    0.00000    0.73231    0.00136   -0.00136  117.49533  650.00000    0.23969    0.10000   30.76522    0.00000    1.77195    1.00000
 8582.00000    6.45000    2.28000    0.25000   -9999.25    0.25000    0.22000   -9999.25   -9999.25   26.00000    2.77000    0.25653    2.70093    0.00200    0.99220    0.00000    0.71948    0.03013   -0.00614  135.61691  650.00000    0.16675    0.10000   28.48805    0.00000    2.77198    1.00000
 8582.50000    5.37000    2.28000    0.25000   -9999.25    0.25000    0.22000   -9999.25   -9999.25   27.25000    3.52000    0.25653    2.70093    0.00200    0.99220    0.00000    0.64146    0.11422   -0.01221  125.91934  650.00000    0.17402    0.10000   28.64600    0.00000    3.52022    1.00000
 8583.00000    5.50000    2.28000    0.25000   -9999.25    0.25000    0.22000   -9999.25   -9999.25   26.93000    2.86000    0.25653    2.70093    0.00200    0.99220    0.00000    0.65085    0.10410   -0.01148  134.42205  650.00000    0.16764    0.10000   28.50814    0.00000    2.86054    1.00000
 8583.50000    7.06000    2.28000    0.25000   -9999.25    0.25000    0.22000   -9999.25   -9999.25   26.61000    2.20000    0.25653    2.70093    0.00200    0.99220    0.00000    0.74347    0.00271   -0.00271  139.06672  650.00000    0.15372    0.10000   24.84003    0.00000    2.20081    1.00000
 8584.00000    8.62000    2.28000    0.26000   -9999.25    0.26000    0.22000   -9999.25   -9999.25   26.78000    2.10000    0.26372    2.70577    0.00200    0.99242    0.00000    0.72949    0.00074    0.00606  126.30781  650.00000    0.17298    0.10000   28.79362    0.00000    2.10031    1.00000
 8584.50000    8.84000    2.27000    0.26000   -9999.25    0.26000    0.22000   -9999.25   -9999.25   27.20000    2.29000    0.26826    2.69579    0.00200    0.99254    0.00000    0.72371    0.00073    0.00730  111.87192  650.00000    0.24409    0.10000   30.96660    0.00000    2.29099    1.00000
 8585.00000    7.92000    2.27000    0.25000   -9999.25    0.26000    0.23000   -9999.25   -9999.25   26.90000    2.21000    0.26769    2.68338    0.00200    0.99253    0.00000    0.72945    0.00073    0.00213  113.67059  650.00000    0.24240    0.10000   30.89998    0.00000    2.21162    1.00000
 8585.50000    7.35000    2.28000    0.25000   -9999.25    0.25000    0.23000   -9999.25   -9999.25   26.60000    2.13000    0.25653    2.70093    0.00200    0.99220    0.00000    0.74347    0.00108   -0.00108  139.57137  650.00000    0.15340    0.10000   24.84035    0.00000    2.13018    1.00000
 8586.00000    7.63000    2.29000    0.25000   -9999.25    0.25000    0.23000   -9999.25   -9999.25   26.72000    2.27000    0.25380    2.70450    0.00200    0.99212    0.00000    0.74496    0.00075    0.00050  146.70143  650.00000    0.14914    0.10000   24.97289    0.00000    2.27230    1.00000
 8586.50000    8.07000    2.29000    0.25000   -9999.25    0.25000    0.24000   -9999.25   -9999.25   26.60000    2.25000    0.25380    2.70450    0.00200    0.99212    0.00000    0.74248    0.00075    0.00297  146.93854  650.00000    0.14900    0.10000   24.98046    0.00000    2.25008    1.00000
 8587.00000    7.93000    2.30000    0.25000   -9999.25    0.25000    0.25000   -9999.25   -9999.25   26.00000    1.94000    0.25282    2.70629    0.00200    0.99209    0.00000    0.74425    0.00075    0.00218  146.55249  650.00000    0.14917    0.10000   24.91902    0.00000    2.50997    1.00000
 8587.50000    7.36000    2.31000    0.25000   -9999.25    0.25000    0.25000   -9999.25   -9999.25   25.49000    1.67000    0.25178    2.70802    0.00200    0.99206    0.00000    0.74822    0.00102   -0.00102  165.66586  650.00000    0.13489    0.10000   27.51181    0.00000    1.67143    3.00000
 8588.00000    6.91000    2.31000    0.25000   -9999.25    0.24000    0.26000   -9999.25   -9999.25   25.44000    1.67000    0.25178    2.70802    0.00200    0.99206    0.00000    0.73298    0.01878   -0.00355  165.66453  650.00000    0.13489    0.10000   27.51180    0.00000    1.67132    3.00000
