~Version ---------------------------------------------------
VERS.   2.0 : CWLS log ASCII Standard -VERSION 2.0
WRAP.    NO : One line per depth step
DLM . SPACE : Column Data Section Delimiter
~Well ------------------------------------------------------
STRT.ft 8440.00000 : START DEPTH
STOP.ft 8630.00000 : STOP DEPTH
STEP.ft    0.50000 : STEP
NULL.     -9999.25 : NULL VALUE
COMP.              : COMPANY
WELL.        HW-10 : 
FLD .        COSTA : 
LOC .              : LOCATION
PROV.              : PROVINCE
CNTY.              : COUNTY
STAT.              : STATE
CTRY.              : COUNTRY
SRVC.              : SERVICE COMPANY
DATE.              : DATE
UWI .        HW-10 : 
API .              : API NUMBER
~Curve Information -----------------------------------------
DEPT       .ft    : 
GR         .GAPI  : 
RHOB       .G/C3  : 
NPHI       .V/V   : 
DT         .US/F  : 
PHIE       .V/V   : 
RT         .OHMM  : 
SW         .V/V   : 
SO         .V/V   : 
CORE_POR   .%     : 
CORE_PERM  .mD    : 
PHIT       .V/V   : 
Rho_Matrix .G/C3  : 
BVO_Thomeer.V/V   : 
Sw_Thomeer .V/V   : 
Vol_Quartz .V/V   : 
Vol_Calcite.V/V   : 
Vol_dolo   .V/V   : 
Vol_Illite .V/V   : 
Pd1_knn    .psi   : 
Pd2_knn    .psi   : 
G1_knn     .      : 
G2_knn     .      : 
BV1_knn    .%     : 
BV2_knn    .%     : 
Perm_knn   .mD    : 
ROCK_INDEX .      : 
~Params ----------------------------------------------------
~Other -----------------------------------------------------
~ASCII -----------------------------------------------------
# ...
 8480.50000    9.02000    2.26000    0.26000   -9999.25    0.26000    1.65000    0.51000    0.49000   26.30000    3.95000    0.26995    2.68015    0.19271    0.28612    0.00000    0.72101    0.00073    0.00831   94.07290  650.00000    0.25416    0.10000   31.57372    0.00000    4.00457    1.00000
 8481.00000    9.37000    2.26000    0.27000   -9999.25    0.27000    1.72000    0.49000    0.51000   26.30000    7.35000    0.27209    2.69908    0.18181    0.33181    0.00000    0.71690    0.00073    0.01028   52.86115  650.00000    0.41590    0.10000   34.35840    0.00000    7.35637    1.00000
 8481.50000   10.15000    2.26000    0.26000   -9999.25    0.27000    1.82000    0.48000    0.52000   26.30000   10.75000    0.26995    2.68015    0.16838    0.37625    0.00000    0.71465    0.00073    0.01466   39.03105  650.00000    0.54593    0.10000   35.96368    0.00000   10.73433    1.00000
 8482.00000   10.24000    2.27000    0.26000   -9999.25    0.26000    1.95000    0.48000    0.52000   25.91000    8.23000    0.26826    2.69579    0.17040    0.36481    0.00000    0.71584    0.00073    0.01517   45.10430  650.00000    0.49217    0.10000   35.29939    0.00000    8.23085    1.00000
 8482.50000    9.59000    2.27000    0.25000   -9999.25    0.26000    2.11000    0.47000    0.53000   25.49000    9.99000    0.26769    2.68338    0.16597    0.37999    0.00000    0.72006    0.00073    0.01152   39.71786  650.00000    0.54389    0.10000   35.93767    0.00000    9.96380    1.00000
 8483.00000    8.79000    2.28000    0.25000   -9999.25    0.25000    2.32000    0.45000    0.55000   25.17000   22.22000    0.25653    2.70093    0.11372    0.55670    0.00000    0.73571    0.00074    0.00702   20.22342  650.00000    1.12604    0.10000   33.76954    0.00000   21.96730    1.00000
 8483.50000    8.58000    2.28000    0.24000   -9999.25    0.25000    2.55000    0.43000    0.57000   25.00000   33.87000    0.25558    2.68828    0.12683    0.50376    0.00000    0.73784    0.00074    0.00584   20.38794  650.00000    0.97700    0.10000   33.48477    0.00000   33.52619    1.00000
 8484.00000    8.89000    2.29000    0.25000   -9999.25    0.25000    2.77000    0.42000    0.58000   25.60000   42.42000    0.25380    2.70450    0.15204    0.40096    0.00000    0.73787    0.00075    0.00758   26.50744  650.00000    0.66889    0.10000   29.76416    0.00000   42.38881    1.00000
 8484.50000    9.14000    2.30000    0.25000   -9999.25    0.25000    2.96000    0.40000    0.60000   26.14000   42.40000    0.25282    2.70629    0.18283    0.27682    0.00000    0.73745    0.00075    0.00899  141.88731  650.00000    0.16248    0.10000   28.29944    0.00000    2.94733    1.00000
 8485.00000    9.21000    2.30000    0.25000   -9999.25    0.25000    3.12000    0.39000    0.61000   26.54000   25.73000    0.25282    2.70629    0.18252    0.27803    0.00000    0.73706    0.00075    0.00938  141.36162  650.00000    0.16288    0.10000   28.30650    0.00000    2.97646    1.00000
 8485.50000    9.11000    2.30000    0.25000   -9999.25    0.25000    3.22000    0.39000    0.61000   26.49000   13.65000    0.25282    2.70629    0.18367    0.27352    0.00000    0.73762    0.00075    0.00882  133.92633  650.00000    0.16856    0.10000   28.40309    0.00000    3.41487    1.00000
 8486.00000    9.03000    2.30000    0.25000   -9999.25    0.25000    3.28000    0.39000    0.61000   25.57000   10.48000    0.25282    2.70629    0.18637    0.26284    0.00000    0.73807    0.00075    0.00837  119.90712  650.00000    0.17943    0.10000   28.55644    0.00000    4.51114    1.00000
 8486.50000    8.90000    2.30000    0.25000   -9999.25    0.25000    3.29000    0.38000    0.62000   24.84000    8.30000    0.25282    2.70629    0.18408    0.27186    0.00000    0.73880    0.00075    0.00764  128.44125  650.00000    0.17279    0.10000   28.46895    0.00000    3.78843    1.00000
 8487.00000    8.65000    2.30000    0.25000   -9999.25    0.25000    3.26000    0.38000    0.62000   25.09000   11.32000    0.25282    2.70629    0.18094    0.28430    0.00000    0.74021    0.00075    0.00623  164.41485  650.00000    0.13593    0.10000   27.58966    0.00000    2.07838    3.00000
 8487.50000    8.75000    2.29000    0.25000   -9999.25    0.25000    3.18000    0.39000    0.61000   25.46000   15.31000    0.25380    2.70450    0.10676    0.57936    0.00000    0.73866    0.00075    0.00679   20.78467  650.00000    1.15976    0.10000   33.22759    0.00000   15.30959    1.00000
 8488.00000    9.02000    2.29000    0.25000   -9999.25    0.25000    3.06000    0.40000    0.60000   26.48000   24.35000    0.25380    2.70450    0.09935    0.60854    0.00000    0.73714    0.00075    0.00831   21.22132  650.00000    1.23749    0.10000   32.84674    0.00000   24.29861    1.00000
 8488.50000    8.85000    2.29000    0.24000   -9999.25    0.25000    2.91000    0.41000    0.59000   27.50000   33.40000    0.25441    2.70430    0.11299    0.55586    0.00000    0.73749    0.00075    0.00735   21.01117  650.00000    1.08412    0.10000   32.93818    0.00000   33.18923    1.00000
 8489.00000    8.05000    2.29000    0.23000   -9999.25    0.24000    2.77000    0.43000    0.57000   23.77000   16.39000    0.25193    2.68526    0.10207    0.59487    0.00000    0.74446    0.00075    0.00286   21.03964  650.00000    1.19278    0.10000   32.99541    0.00000   16.38852    1.00000
 8489.50000    7.14000    2.29000    0.23000   -9999.25    0.24000    2.65000    0.45000    0.55000   21.03000    5.15000    0.25193    2.68526    0.18429    0.26851    0.00000    0.74807    0.00226   -0.00226  114.65832  650.00000    0.18381    0.10000   28.54949    0.00000    5.14938    1.00000
 8490.00000    7.13000    2.30000    0.23000   -9999.25    0.24000    2.59000    0.46000    0.54000   20.26000    5.07000    0.25108    2.68577    0.18284    0.27177    0.00000    0.74695    0.00428   -0.00232  115.78082  650.00000    0.18312    0.10000   28.50043    0.00000    5.07091    1.00000
 8490.50000    8.03000    2.32000    0.22000   -9999.25    0.23000    2.58000    0.47000    0.53000   19.16000    4.75000    0.23147    2.68357    0.17981    0.22318    0.00000    0.73406    0.03172    0.00274   80.90416  650.00000    0.19436    0.10000   18.48036    0.00000    4.75276    1.00000
 8491.00000    9.01000    2.33000    0.21000   -9999.25    0.22000    2.61000    0.49000    0.51000   16.40000    3.11000    0.22424    2.68836    0.18243    0.18646    0.00000    0.76673    0.00078    0.00825   65.07151  650.00000    0.18624    0.10000   15.31542    0.00000    3.10925    1.00000
 8491.50000    9.79000    2.35000    0.21000   -9999.25    0.21000    2.67000    0.49000    0.51000   13.64000    1.47000    0.21355    2.68965    0.12814    0.39994    0.00000    0.77302    0.00079    0.01264  137.84424  650.00000    0.21730    0.10000   22.80504    0.00000    1.47089    3.00000
 8492.00000   10.79000    2.38000    0.19000   -9999.25    0.20000    2.71000    0.54000    0.46000   12.73000    0.71000    0.19820    2.69966    0.05675    0.71367    0.00000    0.78274    0.00080    0.01826  204.18118  650.00000    0.27973    0.10000   23.17302    0.00000    0.71002    3.00000
 8492.50000   11.79000    2.42000    0.17000   -9999.25    0.17000    2.70000    0.62000    0.38000   12.78000    0.41000    0.17399    2.69420    0.08630    0.50401    0.00000    0.77682    0.02530    0.02388  189.63857  650.00000    0.17667    0.10000   19.66320    0.00000    0.41080    3.00000
 8493.00000   12.19000    2.46000    0.15000   -9999.25    0.15000    2.63000    0.73000    0.27000   16.50000   58.95000    0.15516    2.70097    0.12691    0.18207    0.00000    0.73053    0.08817    0.02613   14.51425  650.00000    0.26866    0.10000   16.24587    0.00000   58.52103    1.00000
 8493.50000   11.81000    2.49000    0.14000   -9999.25    0.13000    2.50000    0.83000    0.17000   20.42000  100.87000    0.14163    2.72536    0.12183    0.13976    0.00000    0.64895    0.18543    0.02400   13.50620  650.00000    0.18373    0.10000   16.81402    0.00000  100.80928    1.00000
