~Version ---------------------------------------------------
VERS.   2.0 : CWLS log ASCII Standard -VERSION 2.0
WRAP.    NO : One line per depth step
DLM . SPACE : Column Data Section Delimiter
~Well ------------------------------------------------------
STRT.ft 8440.00000 : START DEPTH
STOP.ft 8630.00000 : STOP DEPTH
STEP.ft    0.50000 : STEP
NULL.     -9999.25 : NULL VALUE
COMP.              : COMPANY
WELL.        HW-10 : 
FLD .        COSTA : 
LOC .              : LOCATION
PROV.              : PROVINCE
CNTY.              : COUNTY
STAT.              : STATE
CTRY.              : COUNTRY
SRVC.              : SERVICE COMPANY
DATE.              : DATE
UWI .        HW-10 : 
API .              : API NUMBER
~Curve Information -----------------------------------------
DEPT       .ft    : 
GR         .GAPI  : 
RHOB       .G/C3  : 
NPHI       .V/V   : 
DT         .US/F  : 
PHIE       .V/V   : 
RT         .OHMM  : 
SW         .V/V   : 
SO         .V/V   : 
CORE_POR   .%     : 
CORE_PERM  .mD    : 
PHIT       .V/V   : 
Rho_Matrix .G/C3  : 
BVO_Thomeer.V/V   : 
Sw_Thomeer .V/V   : 
Vol_Quartz .V/V   : 
Vol_Calcite.V/V   : 
Vol_dolo   .V/V   : 
Vol_Illite .V/V   : 
Pd1_knn    .psi   : 
Pd2_knn    .psi   : 
G1_knn     .      : 
G2_knn     .      : 
BV1_knn    .%     : 
BV2_knn    .%     : 
Perm_knn   .mD    : 
ROCK_INDEX .      : 
~Params ----------------------------------------------------
~Other -----------------------------------------------------
~ASCII -----------------------------------------------------
# ...
 8507.50000    9.09000    2.29000    0.25000   -9999.25    0.25000    1.01000    0.68000    0.32000   26.60000    6.90000    0.25380    2.70450    0.17330    0.31717    0.00000    0.73675    0.00075    0.00870  103.36669  650.00000    0.19252    0.10000   28.68178    0.00000    6.89606    1.00000
 8508.00000    8.96000    2.30000    0.26000   -9999.25    0.25000    1.00000    0.69000    0.31000   25.52000    8.01000    0.25299    2.70651    0.09745    0.61480    0.00000    0.73829    0.00075    0.00797   45.54203  650.00000    0.80084    0.10000   28.94271    0.00000    7.99850    1.00000
 8508.50000    9.56000    2.30000    0.25000   -9999.25    0.25000    0.99000    0.69000    0.31000   24.93000    8.17000    0.25282    2.70629    0.09580    0.62107    0.00000    0.73509    0.00075    0.01135   45.00154  650.00000    0.81576    0.10000   28.90111    0.00000    8.45984    1.00000
 8509.00000   10.38000    2.29000    0.25000   -9999.25    0.25000    0.99000    0.70000    0.30000   25.32000    6.51000    0.25380    2.70450    0.17070    0.32743    0.00000    0.72950    0.00075    0.01596  105.16118  650.00000    0.19101    0.10000   28.68497    0.00000    6.50928    1.00000
 8509.50000   10.81000    2.28000    0.24000   -9999.25    0.25000    1.00000    0.70000    0.30000   25.70000    4.85000    0.25558    2.68828    0.16724    0.34565    0.00000    0.72530    0.00074    0.01837  114.23861  650.00000    0.18317    0.10000   28.75272    0.00000    4.85509    1.00000
 8510.00000   10.68000    2.28000    0.23000   -9999.25    0.24000    1.01000    0.70000    0.30000   23.35000   14.63000    0.25311    2.68439    0.09540    0.62308    0.00000    0.72850    0.00075    0.01764   20.83305  650.00000    1.16223    0.10000   33.18053    0.00000   14.62604    1.00000
 8510.50000   10.24000    2.29000    0.23000   -9999.25    0.24000    1.02000    0.72000    0.28000   21.00000   24.41000    0.25193    2.68526    0.07839    0.68885    0.00000    0.73215    0.00075    0.01517   22.02569  650.00000    1.34155    0.10000   32.11419    0.00000   24.40681    1.00000
 8511.00000    9.65000    2.31000    0.22000   -9999.25    0.23000    1.03000    0.73000    0.27000   23.29000   12.48000    0.23265    2.68271    0.14915    0.35890    0.00000    0.75473    0.00077    0.01185   41.33539  650.00000    0.40366    0.10000   26.15533    0.00000   12.43963    1.00000
 8511.50000    9.22000    2.33000    0.23000   -9999.25    0.23000    1.07000    0.73000    0.27000   24.06000    4.17000    0.23555    2.71361    0.16231    0.31093    0.00000    0.75426    0.00076    0.00943   97.03611  650.00000    0.18471    0.10000   19.93613    0.00000    4.15326    1.00000
 8512.00000    9.17000    2.33000    0.23000   -9999.25    0.23000    1.14000    0.71000    0.29000   21.88000    2.92000    0.23555    2.71361    0.15184    0.35536    0.00000    0.75454    0.00076    0.00915  132.37620  650.00000    0.14400    0.10000   20.63822    0.00000    2.91092    3.00000
 8512.50000    8.97000    2.34000    0.22000   -9999.25    0.22000    1.24000    0.70000    0.30000   19.70000    1.67000    0.22564    2.69587    0.15609    0.30825    0.00000    0.76556    0.00077    0.00803  114.07368  650.00000    0.14773    0.10000   19.14519    0.00000    1.68270    3.00000
 8513.00000    8.60000    2.35000    0.20000   -9999.25    0.21000    1.35000    0.71000    0.29000   17.90000    1.03000    0.21350    2.68962    0.17166    0.19596    0.00000    0.70377    0.07678    0.00595   49.16857  650.00000    0.18767    0.10000   17.75177    0.00000    9.47326    1.00000
 8513.50000    8.93000    2.38000    0.20000   -9999.25    0.20000    1.49000    0.71000    0.29000   16.10000    0.39000    0.19951    2.71223    0.01939    0.90281    0.00000    0.67155    0.12114    0.00780  198.57270  650.00000    0.24402    0.10000   23.24221    0.00000    0.39030    3.00000
 8514.00000   10.84000    2.43000    0.18000   -9999.25    0.17000    1.62000    0.79000    0.21000   13.63000    0.37000    0.17890    2.72410    0.04279    0.76082    0.00000    0.72700    0.07556    0.01854  179.20561  650.00000    0.20859    0.10000   22.14657    0.00000    0.37033    3.00000
 8514.50000   13.00000    2.49000    0.15000   -9999.25    0.14000    1.71000    0.94000    0.06000   12.34000    1.92000    0.14124    2.72571    0.06399    0.54690    0.00000    0.73324    0.09484    0.03069   36.62033  650.00000    0.64695    0.10000   17.13931    0.00000    1.91939    1.00000
 8515.00000   13.47000    2.53000    0.13000   -9999.25    0.12000    1.73000   -9999.25   -9999.25   13.35000    6.55000    0.12349    2.73438    0.06230    0.49547    0.00000    0.69626    0.14692    0.03333   35.03336  650.00000    0.54961    0.10000   14.92227    0.00000    6.54794    1.00000
 8515.50000   12.27000    2.55000    0.12000   -9999.25    0.11000    1.66000   -9999.25   -9999.25   14.87000   10.01000    0.11191    2.71804    0.05823    0.47969    0.00000    0.56347    0.29804    0.02658   43.12255  650.00000    0.45353    0.10000   11.98637    0.00000   10.00748    1.00000
 8516.00000   10.54000    2.53000    0.13000   -9999.25    0.12000    1.53000   -9999.25   -9999.25   19.04000    7.34000    0.12349    2.73438    0.06638    0.46247    0.00000    0.48460    0.37506    0.01686   22.67220  650.00000    0.60198    0.10000   14.45266    0.00000    7.33432    1.00000
 8516.50000    9.39000    2.48000    0.16000   -9999.25    0.15000    1.37000    1.00000    0.00000   22.28000    5.52000    0.15029    2.72625    0.08091    0.46163    0.00000    0.50827    0.33105    0.01039   17.98194  650.00000    0.69127    0.10000   18.69488    0.00000    5.51953    1.00000
 8517.00000    8.76000    2.41000    0.19000   -9999.25    0.19000    1.21000    0.85000    0.15000   23.68000    5.36000    0.19503    2.72014    0.13825    0.29116    0.00000    0.64075    0.15737    0.00685   71.67883  650.00000    0.19581    0.10000   23.19624    0.00000    5.35675    1.00000
 8517.50000    8.09000    2.37000    0.22000   -9999.25    0.22000    1.08000    0.77000    0.23000   25.08000    5.20000    0.21398    2.71226    0.17172    0.19745    0.00000    0.66784    0.11510    0.00308   39.86274  650.00000    0.20508    0.10000   11.41077    0.00000    5.19399    1.00000
 8518.00000    7.47000    2.34000    0.24000   -9999.25    0.23000    0.96000    0.76000    0.24000   24.45000    8.23000    0.23836    2.73595    0.11672    0.51033    0.00000    0.71972    0.04233   -0.00040   40.62955  650.00000    0.59155    0.10000   26.37035    0.00000    8.22379    1.00000
 8518.50000    7.24000    2.32000    0.24000   -9999.25    0.24000    0.87000    0.77000    0.23000   23.79000   10.72000    0.24336    2.70963    0.10810    0.55581    0.00000    0.72346    0.03488   -0.00170   40.00936  650.00000    0.67108    0.10000   26.48427    0.00000   11.02012    1.00000
 8519.00000    7.71000    2.31000    0.23000   -9999.25    0.24000    0.81000    0.81000    0.19000   25.00000    7.18000    0.24214    2.70237    0.17194    0.28991    0.00000    0.75340    0.00352    0.00095   88.69166  650.00000    0.16796    0.10000   26.22569    0.00000    7.16556    1.00000
 8519.50000    8.77000    2.29000    0.23000   -9999.25    0.24000    0.78000    0.81000    0.19000   26.20000    3.63000    0.25193    2.68526    0.13159    0.47769    0.00000    0.74042    0.00075    0.00690  131.96941  650.00000    0.17022    0.10000   28.39659    0.00000    3.63016    1.00000
 8520.00000    9.35000    2.28000    0.24000   -9999.25    0.25000    0.76000    0.79000    0.21000   26.35000    3.63000    0.25558    2.68828    0.13782    0.46077    0.00000    0.73351    0.00074    0.01017  126.19104  650.00000    0.17399    0.10000   28.60531    0.00000    3.63399    1.00000
 8520.50000    9.06000    2.27000    0.25000   -9999.25    0.26000    0.76000    0.77000    0.23000   26.50000    3.63000    0.26769    2.68338    0.14016    0.47642    0.00000    0.72304    0.00073    0.00854  100.45400  650.00000    0.25259    0.10000   31.37197    0.00000    3.62787    1.00000
