~Version ---------------------------------------------------
VERS.   2.0 : CWLS log ASCII Standard -VERSION 2.0
WRAP.    NO : One line per depth step
DLM . SPACE : Column Data Section Delimiter
~Well ------------------------------------------------------
STRT.ft 8440.00000 : START DEPTH
STOP.ft 8630.00000 : STOP DEPTH
STEP.ft    0.50000 : STEP
NULL.     -9999.25 : NULL VALUE
COMP.              : COMPANY
WELL.        HW-10 : 
FLD .        COSTA : 
LOC .              : LOCATION
PROV.              : PROVINCE
CNTY.              : COUNTY
STAT.              : STATE
CTRY.              : COUNTRY
SRVC.              : SERVICE COMPANY
DATE.              : DATE
UWI .        HW-10 : 
API .              : API NUMBER
~Curve Information -----------------------------------------
DEPT       .ft    : 
GR         .GAPI  : 
RHOB       .G/C3  : 
NPHI       .V/V   : 
DT         .US/F  : 
PHIE       .V/V   : 
RT         .OHMM  : 
SW         .V/V   : 
SO         .V/V   : 
CORE_POR   .%     : 
CORE_PERM  .mD    : 
PHIT       .V/V   : 
Rho_Matrix .G/C3  : 
BVO_Thomeer.V/V   : 
Sw_Thomeer .V/V   : 
Vol_Quartz .V/V   : 
Vol_Calcite.V/V   : 
Vol_dolo   .V/V   : 
Vol_Illite .V/V   : 
Pd1_knn    .psi   : 
Pd2_knn    .psi   : 
G1_knn     .      : 
G2_knn     .      : 
BV1_knn    .%     : 
BV2_knn    .%     : 
Perm_knn   .mD    : 
ROCK_INDEX .      : 
~Params ----------------------------------------------------
~Other -----------------------------------------------------
~ASCII -----------------------------------------------------
# ...
 8548.00000   11.96000    2.34000    0.19000   -9999.25    0.21000    0.49000   -9999.25   -9999.25   23.33000    1.31000    0.21501    2.68754    0.00200    0.99070    0.00000    0.75936    0.00078    0.02484  141.64375  650.00000    0.22543    0.10000   22.82139    0.00000    1.31234    3.00000
 8548.50000   13.43000    2.36000    0.19000   -9999.25    0.20000    0.53000   -9999.25   -9999.25   22.50000    1.16000    0.21216    2.69177    0.00200    0.99057    0.00000    0.75395    0.00079    0.03311  150.89511  650.00000    0.24001    0.10000   22.85510    0.00000    1.15966    3.00000
 8549.00000   13.00000    2.38000    0.18000   -9999.25    0.19000    0.57000   -9999.25   -9999.25   21.90000    1.19000    0.19561    2.69571    0.00200    0.98978    0.00000    0.77290    0.00080    0.03069  180.61497  650.00000    0.25893    0.10000   22.29585    0.00000    1.19001    3.00000
 8549.50000   10.75000    2.39000    0.18000   -9999.25    0.19000    0.60000   -9999.25   -9999.25   21.36000    3.70000    0.19449    2.69658    0.01027    0.94721    0.00000    0.78347    0.00400    0.01804   94.66968  650.00000    0.18216    0.10000   22.36852    0.00000    3.69161    1.00000
 8550.00000    8.64000    2.38000    0.19000   -9999.25    0.19000    0.61000   -9999.25   -9999.25   21.09000   19.23000    0.19820    2.69966    0.07013    0.64614    0.00000    0.64558    0.15005    0.00617    8.41723  650.00000    1.19300    0.10000   28.36470    0.00000   19.21893    1.00000
 8550.50000    8.06000    2.36000    0.21000   -9999.25    0.21000    0.61000   -9999.25   -9999.25   20.83000   34.77000    0.21216    2.69177    0.08859    0.58241    0.00000    0.65901    0.12592    0.00291   13.86722  650.00000    0.81093    0.10000   28.89130    0.00000   34.71871    1.00000
 8551.00000    8.56000    2.34000    0.22000   -9999.25    0.22000    0.59000   -9999.25   -9999.25   20.87000   29.28000    0.22564    2.69587    0.11848    0.47490    0.00000    0.74872    0.01992    0.00572   42.51376  650.00000    0.26849    0.10000   25.97116    0.00000   29.15955    1.00000
 8551.50000    8.97000    2.33000    0.22000   -9999.25    0.23000    0.56000   -9999.25   -9999.25   21.20000    2.76000    0.22632    2.69398    0.00200    0.99116    0.00000    0.76488    0.00077    0.00803  104.60366  650.00000    0.15333    0.10000   17.68305    0.00000    2.75468    3.00000
 8552.00000    9.02000    2.34000    0.22000   -9999.25    0.22000    0.52000   -9999.25   -9999.25   22.35000    2.29000    0.22564    2.69587    0.00200    0.99114    0.00000    0.76528    0.00077    0.00831  108.11210  650.00000    0.15086    0.10000   18.29962    0.00000    2.29024    3.00000
 8552.50000    9.37000    2.33000    0.23000   -9999.25    0.23000    0.50000   -9999.25   -9999.25   23.50000    1.82000    0.23555    2.71361    0.00200    0.99151    0.00000    0.75341    0.00076    0.01028  143.99699  650.00000    0.13916    0.10000   22.05023    0.00000    1.82047    3.00000
 8553.00000    9.72000    2.33000    0.23000   -9999.25    0.23000    0.49000   -9999.25   -9999.25   24.31000    2.26000    0.23555    2.71361    0.00200    0.99151    0.00000    0.75144    0.00076    0.01225  141.97802  650.00000    0.14017    0.10000   21.77398    0.00000    2.25406    3.00000
 8553.50000    9.44000    2.34000    0.23000   -9999.25    0.22000    0.49000   -9999.25   -9999.25   25.12000    2.69000    0.23453    2.71468    0.00200    0.99147    0.00000    0.75404    0.00077    0.01067  132.01989  650.00000    0.14394    0.10000   20.63418    0.00000    2.68800    3.00000
 8554.00000    8.59000    2.36000    0.22000   -9999.25    0.22000    0.50000   -9999.25   -9999.25   24.53000    2.33000    0.21513    2.71144    0.00801    0.96278    0.00000    0.70884    0.07014    0.00589   81.07846  650.00000    0.16996    0.10000   18.15153    0.00000    2.33105    1.00000
 8554.50000    8.02000    2.38000    0.22000   -9999.25    0.21000    0.52000   -9999.25   -9999.25   23.21000    1.56000    0.20900    2.72342    0.00200    0.99043    0.00000    0.64286    0.14545    0.00269  138.68697  650.00000    0.21637    0.10000   22.80547    0.00000    1.55997    3.00000
 8555.00000    8.39000    2.39000    0.21000   -9999.25    0.20000    0.55000   -9999.25   -9999.25   22.50000    1.44000    0.19753    2.71558    0.00200    0.98988    0.00000    0.62428    0.17342    0.00477  173.42209  650.00000    0.24472    0.10000   22.26385    0.00000    1.44022    3.00000
 8555.50000    8.84000    2.42000    0.20000   -9999.25    0.19000    0.57000   -9999.25   -9999.25   21.63000    1.36000    0.19322    2.72369    0.00200    0.98965    0.00000    0.63894    0.16054    0.00730  177.27077  650.00000    0.22473    0.10000   21.37278    0.00000    1.36022    3.00000
 8556.00000    8.95000    2.45000    0.19000   -9999.25    0.17000    0.58000   -9999.25   -9999.25   19.31000    0.87000    0.18107    2.74838    0.00200    0.98895    0.00000    0.59819    0.21282    0.00792  164.72553  650.00000    0.19470    0.10000   20.77338    0.00000    0.87031    3.00000
 8556.50000    8.89000    2.46000    0.19000   -9999.25    0.17000    0.58000   -9999.25   -9999.25   17.00000    0.37000    0.17995    2.75083    0.00200    0.98889    0.00000    0.58907    0.22340    0.00758  179.61385  650.00000    0.20906    0.10000   22.17397    0.00000    0.37151    3.00000
 8557.00000    8.94000    2.46000    0.19000   -9999.25    0.17000    0.55000   -9999.25   -9999.25   18.93000   23.56000    0.17995    2.75083    0.03570    0.80160    0.00000    0.59268    0.21951    0.00786   23.58406  650.00000    0.87074    0.10000   18.52326    0.00000   23.46739    1.00000
 8557.50000    9.28000    2.44000    0.20000   -9999.25    0.18000    0.52000   -9999.25   -9999.25   19.80000   31.29000    0.18193    2.74651    0.06003    0.67006    0.00000    0.62562    0.18268    0.00977   23.88245  650.00000    0.57980    0.10000   19.13385    0.00000   31.26928    1.00000
 8558.00000    9.51000    2.41000    0.21000   -9999.25    0.20000    0.47000   -9999.25   -9999.25   18.60000    9.02000    0.19503    2.72014    0.01993    0.89782    0.00000    0.69466    0.09924    0.01107   60.13213  650.00000    0.22615    0.10000   22.73088    0.00000    8.99046    1.00000
 8558.50000    9.27000    2.38000    0.21000   -9999.25    0.21000    0.42000   -9999.25   -9999.25   18.62000    1.38000    0.20658    2.71700    0.00200    0.99032    0.00000    0.72378    0.05993    0.00972  154.20368  650.00000    0.24347    0.10000   22.86511    0.00000    1.38023    3.00000
 8559.00000    8.38000    2.35000    0.23000   -9999.25    0.22000    0.38000   -9999.25   -9999.25   19.25000    1.28000    0.22629    2.73234    0.00200    0.99116    0.00000    0.73779    0.03121    0.00471  108.40492  650.00000    0.15116    0.10000   18.25460    0.00000    2.41058    3.00000
 8559.50000    7.15000    2.34000    0.23000   -9999.25    0.23000    0.35000   -9999.25   -9999.25   19.88000    1.19000    0.23453    2.71468    0.00200    0.99147    0.00000    0.68167    0.08601   -0.00220  177.62840  650.00000    0.17120    0.10000   25.22939    0.00000    1.18973    3.00000
 8560.00000    6.61000    2.33000    0.24000   -9999.25    0.23000    0.33000   -9999.25   -9999.25   21.15000    1.27000    0.23834    2.71797    0.00200    0.99161    0.00000    0.65789    0.10900   -0.00524  143.53527  650.00000    0.13911    0.10000   22.04013    0.00000    1.26977    3.00000
 8560.50000    7.01000    2.33000    0.24000   -9999.25    0.24000    0.32000   -9999.25   -9999.25   22.69000    1.64000    0.23834    2.71797    0.00200    0.99161    0.00000    0.68679    0.07786   -0.00299  153.08871  650.00000    0.13610    0.10000   23.01817    0.00000    1.63970    3.00000
 8561.00000    7.94000    2.33000    0.24000   -9999.25    0.24000    0.32000   -9999.25   -9999.25   23.54000    2.22000    0.23834    2.71797    0.00200    0.99161    0.00000    0.75397    0.00544    0.00224  155.53873  650.00000    0.13555    0.10000   23.22756    0.00000    2.21092    3.00000
