~Version ---------------------------------------------------
VERS.   2.0 : CWLS log ASCII Standard -VERSION 2.0
WRAP.    NO : One line per depth step
DLM . SPACE : Column Data Section Delimiter
~Well ------------------------------------------------------
STRT.ft 8440.00000 : START DEPTH
STOP.ft 8630.00000 : STOP DEPTH
STEP.ft    0.50000 : STEP
NULL.     -9999.25 : NULL VALUE
COMP.              : COMPANY
WELL.        HW-10 : 
FLD .        COSTA : 
LOC .              : LOCATION
PROV.              : PROVINCE
CNTY.              : COUNTY
STAT.              : STATE
CTRY.              : COUNTRY
SRVC.              : SERVICE COMPANY
DATE.              : DATE
UWI .        HW-10 : 
API .              : API NUMBER
~Curve Information -----------------------------------------
DEPT       .ft    : 
GR         .GAPI  : 
RHOB       .G/C3  : 
NPHI       .V/V   : 
DT         .US/F  : 
PHIE       .V/V   : 
RT         .OHMM  : 
SW         .V/V   : 
SO         .V/V   : 
CORE_POR   .%     : 
CORE_PERM  .mD    : 
PHIT       .V/V   : 
Rho_Matrix .G/C3  : 
BVO_Thomeer.V/V   : 
Sw_Thomeer .V/V   : 
Vol_Quartz .V/V   : 
Vol_Calcite.V/V   : 
Vol_dolo   .V/V   : 
Vol_Illite .V/V   : 
Pd1_knn    .psi   : 
Pd2_knn    .psi   : 
G1_knn     .      : 
G2_knn     .      : 
BV1_knn    .%     : 
BV2_knn    .%     : 
Perm_knn   .mD    : 
ROCK_INDEX .      : 
~Params ----------------------------------------------------
~Other -----------------------------------------------------
~ASCII -----------------------------------------------------
# ...
 8588.50000    6.99000    2.31000    0.24000   -9999.25    0.24000    0.27000   -9999.25   -9999.25   25.21000    1.61000    0.25175    2.70895    0.00200    0.99206    0.00000    0.73877    0.01259   -0.00310  164.92272  650.00000    0.13516    0.10000   27.50297    0.00000    1.61028    3.00000
 8589.00000    7.52000    2.31000    0.24000   -9999.25    0.24000    0.28000   -9999.25   -9999.25   24.66000    1.45000    0.25175    2.70895    0.00200    0.99206    0.00000    0.74762    0.00075   -0.00012  162.35750  650.00000    0.13615    0.10000   27.47947    0.00000    1.45335    3.00000
 8589.50000    7.77000    2.32000    0.23000   -9999.25    0.23000    0.29000   -9999.25   -9999.25   24.10000    1.29000    0.24161    2.70447    0.00200    0.99172    0.00000    0.75515    0.00196    0.00128  150.24254  650.00000    0.13700    0.10000   22.72641    0.00000    1.28945    3.00000
 8590.00000    7.70000    2.32000    0.24000   -9999.25    0.23000    0.30000   -9999.25   -9999.25   24.43000    1.25000    0.24336    2.70963    0.00200    0.99178    0.00000    0.75500    0.00076    0.00089  151.14285  650.00000    0.13674    0.10000   22.81521    0.00000    1.25735    3.00000
 8590.50000    7.86000    2.33000    0.24000   -9999.25    0.23000    0.31000   -9999.25   -9999.25   24.70000    1.24000    0.23834    2.71797    0.00200    0.99161    0.00000    0.74819    0.01167    0.00179  142.74386  650.00000    0.13936    0.10000   21.95919    0.00000    1.24113    3.00000
 8591.00000    8.40000    2.34000    0.24000   -9999.25    0.23000    0.31000   -9999.25   -9999.25   24.70000    1.42000    0.23836    2.73595    0.00200    0.99161    0.00000    0.75606    0.00076    0.00482  147.70151  650.00000    0.13780    0.10000   22.46663    0.00000    1.42047    3.00000
 8591.50000    8.97000    2.35000    0.23000   -9999.25    0.22000    0.31000   -9999.25   -9999.25   24.70000    1.61000    0.22629    2.73234    0.00200    0.99116    0.00000    0.76491    0.00077    0.00803   38.28430  650.00000    0.21535    0.10000   16.09762    0.00000    5.59975    1.00000
 8592.00000    9.33000    2.36000    0.22000   -9999.25    0.21000    0.32000   -9999.25   -9999.25   24.46000    1.61000    0.21513    2.71144    0.00200    0.99070    0.00000    0.76230    0.01252    0.01005  133.05872  650.00000    0.20934    0.10000   22.78712    0.00000    1.60783    3.00000
 8592.50000    9.73000    2.36000    0.21000   -9999.25    0.21000    0.31000   -9999.25   -9999.25   24.10000    1.51000    0.21216    2.69177    0.00200    0.99057    0.00000    0.77475    0.00079    0.01230  137.70918  650.00000    0.21601    0.10000   22.80329    0.00000    1.50502    3.00000
 8593.00000    9.92000    2.37000    0.21000   -9999.25    0.21000    0.31000   -9999.25   -9999.25   23.45000    1.25000    0.21112    2.70779    0.00200    0.99053    0.00000    0.77472    0.00079    0.01337  149.70170  650.00000    0.23730    0.10000   22.84978    0.00000    1.24971    3.00000
 8593.50000    9.55000    2.36000    0.21000   -9999.25    0.21000    0.30000   -9999.25   -9999.25   22.80000    0.99000    0.21216    2.69177    0.00200    0.99057    0.00000    0.76665    0.00990    0.01129  172.37692  650.00000    0.24289    0.10000   22.99486    0.00000    0.99176    3.00000
 8594.00000    9.35000    2.36000    0.22000   -9999.25    0.22000    0.29000   -9999.25   -9999.25   23.10000    1.12000    0.21513    2.71144    0.00200    0.99070    0.00000    0.76374    0.01097    0.01017  166.03462  650.00000    0.23056    0.10000   22.96579    0.00000    1.12294    3.00000
 8594.50000    9.58000    2.35000    0.23000   -9999.25    0.22000    0.28000   -9999.25   -9999.25   23.20000    1.20000    0.22629    2.73234    0.00200    0.99116    0.00000    0.76148    0.00077    0.01146  172.86459  650.00000    0.18898    0.10000   24.49347    0.00000    1.09656    3.00000
 8595.00000    9.73000    2.34000    0.23000   -9999.25    0.23000    0.27000   -9999.25   -9999.25   22.92000    1.18000    0.23453    2.71468    0.00200    0.99147    0.00000    0.75241    0.00077    0.01230  177.60391  650.00000    0.17145    0.10000   25.22133    0.00000    1.17999    3.00000
 8595.50000    9.51000    2.34000    0.23000   -9999.25    0.23000    0.27000   -9999.25   -9999.25   22.64000    1.15000    0.23453    2.71468    0.00200    0.99147    0.00000    0.75364    0.00077    0.01107  177.53180  650.00000    0.17223    0.10000   25.19680    0.00000    1.15053    3.00000
 8596.00000    9.56000    2.34000    0.23000   -9999.25    0.23000    0.26000   -9999.25   -9999.25   22.53000    1.14000    0.23453    2.71468    0.00200    0.99147    0.00000    0.75336    0.00077    0.01135  177.50753  650.00000    0.17250    0.10000   25.18825    0.00000    1.14032    3.00000
 8596.50000   10.12000    2.33000    0.23000   -9999.25    0.23000    0.26000   -9999.25   -9999.25   22.60000    1.14000    0.23555    2.71361    0.00200    0.99151    0.00000    0.74920    0.00076    0.01450  178.15615  650.00000    0.17063    0.10000   25.27413    0.00000    1.14296    3.00000
 8597.00000   10.00000    2.32000    0.23000   -9999.25    0.23000    0.27000   -9999.25   -9999.25   23.20000    1.65000    0.24161    2.70447    0.00200    0.99172    0.00000    0.74381    0.00076    0.01382  165.02729  650.00000    0.13216    0.10000   24.27633    0.00000    1.65217    3.00000
 8597.50000    8.91000    2.32000    0.23000   -9999.25    0.23000    0.27000   -9999.25   -9999.25   23.43000    2.20000    0.24161    2.70447    0.00200    0.99172    0.00000    0.74994    0.00076    0.00769  172.90985  650.00000    0.12962    0.10000   25.09532    0.00000    2.20093    3.00000
 8598.00000    7.81000    2.31000    0.24000   -9999.25    0.24000    0.28000   -9999.25   -9999.25   23.47000    2.77000    0.25175    2.70895    0.00200    0.99206    0.00000    0.74599    0.00075    0.00151  144.77949  650.00000    0.15009    0.10000   24.75839    0.00000    2.77046    1.00000
 8598.50000    7.44000    2.31000    0.24000   -9999.25    0.24000    0.28000   -9999.25   -9999.25   23.89000    3.02000    0.25175    2.70895    0.00200    0.99206    0.00000    0.74807    0.00075   -0.00057  142.95651  650.00000    0.16179    0.10000   28.25833    0.00000    3.01813    1.00000
 8599.00000    7.73000    2.31000    0.25000   -9999.25    0.25000    0.30000   -9999.25   -9999.25   25.04000    2.62000    0.25178    2.70802    0.00200    0.99206    0.00000    0.74641    0.00075    0.00106  147.61566  650.00000    0.14848    0.10000   24.89438    0.00000    2.62114    1.00000
 8599.50000    8.25000    2.32000    0.24000   -9999.25    0.24000    0.33000   -9999.25   -9999.25   25.28000    2.19000    0.24336    2.70963    0.00200    0.99178    0.00000    0.75191    0.00076    0.00398  182.17691  650.00000    0.12643    0.10000   26.09500    0.00000    2.19003    3.00000
 8600.00000    8.97000    2.33000    0.23000   -9999.25    0.23000    0.37000   -9999.25   -9999.25   23.76000    1.71000    0.23555    2.71361    0.00200    0.99151    0.00000    0.75566    0.00076    0.00803  143.37422  650.00000    0.13929    0.10000   21.99899    0.00000    1.70660    3.00000
 8600.50000    9.57000    2.35000    0.22000   -9999.25    0.22000    0.44000   -9999.25   -9999.25   22.24000    1.22000    0.21596    2.71097    0.00200    0.99074    0.00000    0.77185    0.00078    0.01140  201.03744  650.00000    0.26694    0.10000   23.19634    0.00000    0.78458    3.00000
 8601.00000    9.54000    2.38000    0.21000   -9999.25    0.20000    0.52000   -9999.25   -9999.25   22.63000    1.20000    0.20658    2.71700    0.00200    0.99032    0.00000    0.74328    0.03890    0.01123  166.29712  650.00000    0.26253    0.10000   22.90918    0.00000    1.20005    3.00000
 8601.50000    9.21000    2.41000    0.20000   -9999.25    0.19000    0.63000   -9999.25   -9999.25   23.38000    1.28000    0.19511    2.71933    0.00200    0.98975    0.00000    0.67343    0.12208    0.00938  176.03337  650.00000    0.24907    0.10000   22.18314    0.00000    1.28024    3.00000
