~Version ---------------------------------------------------
VERS.   2.0 : CWLS log ASCII Standard -VERSION 2.0
WRAP.    NO : One line per depth step
DLM . SPACE : Column Data Section Delimiter
~Well ------------------------------------------------------
STRT.ft 8440.00000 : START DEPTH
STOP.ft 8630.00000 : STOP DEPTH
STEP.ft    0.50000 : STEP
NULL.     -9999.25 : NULL VALUE
COMP.              : COMPANY
WELL.        HW-10 : 
FLD .        COSTA : 
LOC .              : LOCATION
PROV.              : PROVINCE
CNTY.              : COUNTY
STAT.              : STATE
CTRY.              : COUNTRY
SRVC.              : SERVICE COMPANY
DATE.              : DATE
UWI .        HW-10 : 
API .              : API NUMBER
~Curve Information -----------------------------------------
DEPT       .ft    : 
GR         .GAPI  : 
RHOB       .G/C3  : 
NPHI       .V/V   : 
DT         .US/F  : 
PHIE       .V/V   : 
RT         .OHMM  : 
SW         .V/V   : 
SO         .V/V   : 
CORE_POR   .%     : 
CORE_PERM  .mD    : 
PHIT       .V/V   : 
Rho_Matrix .G/C3  : 
BVO_Thomeer.V/V   : 
Sw_Thomeer .V/V   : 
Vol_Quartz .V/V   : 
Vol_Calcite.V/V   : 
Vol_dolo   .V/V   : 
Vol_Illite .V/V   : 
Pd1_knn    .psi   : 
Pd2_knn    .psi   : 
G1_knn     .      : 
G2_knn     .      : 
BV1_knn    .%     : 
BV2_knn    .%     : 
Perm_knn   .mD    : 
ROCK_INDEX .      : 
~Params ----------------------------------------------------
~Other -----------------------------------------------------
~ASCII -----------------------------------------------------
# ...
 8494.00000   11.05000    2.49000    0.14000   -9999.25    0.14000    2.35000    0.84000    0.16000   21.06000   51.70000    0.14163    2.72536    0.10974    0.22515    0.00000    0.59404    0.24460    0.01972   14.00219  650.00000    0.32577    0.10000   16.30113    0.00000   51.67387    1.00000
 8494.50000   10.38000    2.46000    0.16000   -9999.25    0.15000    2.19000    0.77000    0.23000   21.70000    2.52000    0.15505    2.70165    0.08966    0.42173    0.00000    0.59920    0.22980    0.01596   18.06946  650.00000    0.68799    0.10000   18.71604    0.00000    2.52240    1.00000
 8495.00000    9.69000    2.41000    0.19000   -9999.25    0.18000    2.04000    0.67000    0.33000   22.49000    2.52000    0.19503    2.72014    0.14338    0.26486    0.00000    0.70793    0.08496    0.01208  110.35501  650.00000    0.15914    0.10000   21.92432    0.00000    2.52939    3.00000
 8495.50000    9.45000    2.37000    0.19000   -9999.25    0.20000    1.89000    0.63000    0.37000   23.27000    2.52000    0.20342    2.69199    0.15279    0.24885    0.00000    0.72496    0.06089    0.01073   92.99902  650.00000    0.17529    0.10000   22.81950    0.00000    2.51994    1.00000
 8496.00000    9.64000    2.35000    0.20000   -9999.25    0.21000    1.76000    0.63000    0.37000   23.61000   39.49000    0.21350    2.68962    0.17893    0.16191    0.00000    0.77392    0.00079    0.01180   43.93553  650.00000    0.19163    0.10000   14.82637    0.00000    6.43043    1.00000
 8496.50000    9.44000    2.35000    0.20000   -9999.25    0.21000    1.64000    0.65000    0.35000   23.86000   83.50000    0.21350    2.68962    0.16774    0.21434    0.00000    0.76445    0.01138    0.01067   82.47195  650.00000    0.16830    0.10000   18.37725    0.00000    2.51624    1.00000
 8497.00000    8.63000    2.35000    0.21000   -9999.25    0.21000    1.56000    0.65000    0.35000   25.62000   60.90000    0.21355    2.68965    0.16966    0.20552    0.00000    0.70603    0.07430    0.00612   11.99510  650.00000    0.39223    0.10000   23.58691    0.00000   60.77302    1.00000
 8497.50000    7.54000    2.33000    0.22000   -9999.25    0.22000    1.52000    0.62000    0.38000   27.67000   25.62000    0.22632    2.69398    0.18009    0.20426    0.00000    0.67804    0.09565   -0.00001   44.04421  650.00000    0.24154    0.10000   25.83375    0.00000   25.41221    1.00000
 8498.00000    6.76000    2.30000    0.23000   -9999.25    0.24000    1.52000    0.59000    0.41000   27.10000   33.13000    0.25108    2.68577    0.07936    0.68394    0.00000    0.72000    0.03332   -0.00440   26.16480  650.00000    1.32397    0.10000   29.17361    0.00000   32.80586    1.00000
 8498.50000    6.17000    2.28000    0.24000   -9999.25    0.25000    1.53000    0.56000    0.44000   26.37000   37.23000    0.25558    2.68828    0.13261    0.48114    0.00000    0.69563    0.05650   -0.00771   20.84125  650.00000    0.85789    0.10000   32.93112    0.00000   37.24745    1.00000
 8499.00000    5.73000    2.27000    0.24000   -9999.25    0.25000    1.52000    0.56000    0.44000   26.27000   18.91000    0.26088    2.68042    0.11615    0.55478    0.00000    0.68506    0.06425   -0.01019   19.71636  650.00000    1.06131    0.10000   34.23201    0.00000   18.89157    1.00000
 8499.50000    6.43000    2.28000    0.24000   -9999.25    0.25000    1.49000    0.56000    0.44000   26.46000   56.01000    0.25558    2.68828    0.21681    0.15172    0.00000    0.71442    0.03625   -0.00625   22.76602  650.00000    0.26744    0.10000   29.58222    0.00000   56.04792    1.00000
 8500.00000    8.05000    2.27000    0.25000   -9999.25    0.25000    1.45000    0.57000    0.43000   27.23000  200.67000    0.26769    2.68338    0.20125    0.24821    0.00000    0.72872    0.00073    0.00286   46.18790  650.00000    0.29884    0.10000   29.60266    0.00000  196.85317    1.00000
 8500.50000    9.36000    2.27000    0.25000   -9999.25    0.26000    1.43000    0.56000    0.44000   28.00000  345.34000    0.26769    2.68338    0.24540    0.08326    0.00000    0.72136    0.00073    0.01022   21.50464  650.00000    0.19030    0.10000   30.10827    0.00000  334.89912    1.00000
 8501.00000    9.55000    2.27000    0.26000   -9999.25    0.26000    1.42000    0.56000    0.44000   26.95000  257.04000    0.26826    2.69579    0.25393    0.05342    0.00000    0.71972    0.00073    0.01129    6.00455  650.00000    0.22762    0.10000   27.73628    0.00000  255.33920    1.00000
 8501.50000    9.20000    2.26000    0.26000   -9999.25    0.26000    1.41000    0.55000    0.45000   25.90000  168.73000    0.26995    2.68015    0.19459    0.27918    0.00000    0.71999    0.00073    0.00932   53.82653  650.00000    0.30381    0.10000   29.97171    0.00000  167.66267    1.00000
 8502.00000    9.15000    2.26000    0.26000   -9999.25    0.26000    1.38000    0.56000    0.44000   26.01000  104.16000    0.26995    2.68015    0.16784    0.37825    0.00000    0.72027    0.00073    0.00904   80.97685  650.00000    0.31386    0.10000   31.04199    0.00000  104.12339    1.00000
 8502.50000    9.09000    2.26000    0.26000   -9999.25    0.26000    1.35000    0.56000    0.44000   26.28000   47.91000    0.26995    2.68015    0.19741    0.26871    0.00000    0.72061    0.00073    0.00870   13.64614  650.00000    0.52575    0.10000   33.55938    0.00000   47.79405    1.00000
 8503.00000    9.00000    2.26000    0.26000   -9999.25    0.26000    1.31000    0.57000    0.43000   27.39000   35.27000    0.26995    2.68015    0.17802    0.34056    0.00000    0.72112    0.00073    0.00820   15.45722  650.00000    0.63605    0.10000   36.46889    0.00000   34.76916    1.00000
 8503.50000    9.27000    2.26000    0.27000   -9999.25    0.27000    1.26000    0.58000    0.42000   28.50000   22.63000    0.27209    2.69908    0.18183    0.33172    0.00000    0.71746    0.00073    0.00972   14.40206  650.00000    0.63390    0.10000   36.63443    0.00000   22.60663    1.00000
 8504.00000   10.13000    2.25000    0.27000   -9999.25    0.27000    1.21000    0.58000    0.42000   27.95000   14.19000    0.28272    2.68462    0.16862    0.40357    0.00000    0.70202    0.00072    0.01455   33.88960  650.00000    0.56336    0.10000   36.18468    0.00000   14.18328    1.00000
 8504.50000   10.73000    2.25000    0.27000   -9999.25    0.27000    1.17000    0.59000    0.41000   27.40000    5.75000    0.28272    2.68462    0.19449    0.31206    0.00000    0.69864    0.00072    0.01792   65.39378  650.00000    0.29645    0.10000   32.88406    0.00000    5.74962    1.00000
 8505.00000   10.13000    2.26000    0.26000   -9999.25    0.27000    1.13000    0.61000    0.39000   27.83000    8.30000    0.26995    2.68015    0.15991    0.40766    0.00000    0.71476    0.00073    0.01455   46.61563  650.00000    0.47600    0.10000   35.10011    0.00000    8.31783    1.00000
 8505.50000    8.99000    2.26000    0.25000   -9999.25    0.26000    1.09000    0.64000    0.36000   28.16000   10.74000    0.27029    2.67969    0.15577    0.42371    0.00000    0.72084    0.00073    0.00814   39.20782  650.00000    0.54361    0.10000   35.93519    0.00000   10.74136    1.00000
 8506.00000    8.54000    2.26000    0.24000   -9999.25    0.26000    1.06000    0.65000    0.35000   27.95000   12.62000    0.26995    2.68015    0.15386    0.43004    0.00000    0.72370    0.00073    0.00561   34.57039  650.00000    0.58628    0.10000   36.46223    0.00000   12.49244    1.00000
 8506.50000    8.96000    2.26000    0.24000   -9999.25    0.26000    1.03000    0.67000    0.33000   27.63000   12.85000    0.26995    2.68015    0.15343    0.43163    0.00000    0.72134    0.00073    0.00797   33.75455  650.00000    0.59357    0.10000   36.55229    0.00000   12.85764    1.00000
 8507.00000    9.34000    2.27000    0.25000   -9999.25    0.25000    1.02000    0.68000    0.32000   27.11000    9.87000    0.26769    2.68338    0.15242    0.43059    0.00000    0.72147    0.00073    0.01011   39.98862  650.00000    0.54132    0.10000   35.90598    0.00000    9.86187    1.00000
