~Version ---------------------------------------------------
VERS.   2.0 : CWLS log ASCII Standard -VERSION 2.0
WRAP.    NO : One line per depth step
DLM . SPACE : Column Data Section Delimiter
~Well ------------------------------------------------------
STRT.ft 8440.00000 : START DEPTH
STOP.ft 8630.00000 : STOP DEPTH
STEP.ft    0.50000 : STEP
NULL.     -9999.25 : NULL VALUE
COMP.              : COMPANY
WELL.        HW-10 : 
FLD .        COSTA : 
LOC .              : LOCATION
PROV.              : PROVINCE
CNTY.              : COUNTY
STAT.              : STATE
CTRY.              : COUNTRY
SRVC.              : SERVICE COMPANY
DATE.              : DATE
UWI .        HW-10 : 
API .              : API NUMBER
~Curve Information -----------------------------------------
DEPT       .ft    : 
GR         .GAPI  : 
RHOB       .G/C3  : 
NPHI       .V/V   : 
DT         .US/F  : 
PHIE       .V/V   : 
RT         .OHMM  : 
SW         .V/V   : 
SO         .V/V   : 
CORE_POR   .%     : 
CORE_PERM  .mD    : 
PHIT       .V/V   : 
Rho_Matrix .G/C3  : 
BVO_Thomeer.V/V   : 
Sw_Thomeer .V/V   : 
Vol_Quartz .V/V   : 
Vol_Calcite.V/V   : 
Vol_dolo   .V/V   : 
Vol_Illite .V/V   : 
Pd1_knn    .psi   : 
Pd2_knn    .psi   : 
G1_knn     .      : 
G2_knn     .      : 
BV1_knn    .%     : 
BV2_knn    .%     : 
Perm_knn   .mD    : 
ROCK_INDEX .      : 
~Params ----------------------------------------------------
~Other -----------------------------------------------------
~ASCII -----------------------------------------------------
# ...
 8467.00000   11.55000    2.41000    0.19000   -9999.25    0.19000    3.03000    0.53000    0.47000   18.45000    1.99000    0.19503    2.72014    0.13174    0.32451    0.00000    0.78163    0.00080    0.02254  158.31751  650.00000    0.18658    0.10000   21.99129    0.00000    1.98657    3.00000
 8467.50000   11.82000    2.39000    0.19000   -9999.25    0.19000    2.82000    0.54000    0.46000   20.95000    2.62000    0.19753    2.71558    0.15618    0.20936    0.00000    0.77761    0.00080    0.02405   88.49519  650.00000    0.18541    0.10000   22.87496    0.00000    2.61921    1.00000
 8468.00000   11.98000    2.38000    0.18000   -9999.25    0.19000    2.61000    0.56000    0.44000   22.85000    3.28000    0.19561    2.69571    0.15393    0.21309    0.00000    0.77863    0.00080    0.02495   85.81417  650.00000    0.19077    0.10000   22.91652    0.00000    3.26788    1.00000
 8468.50000   12.02000    2.38000    0.18000   -9999.25    0.19000    2.42000    0.59000    0.41000   24.45000    3.93000    0.19561    2.69571    0.15696    0.19757    0.00000    0.77841    0.00080    0.02518   65.15463  650.00000    0.20674    0.10000   19.14005    0.00000    3.94376    1.00000
 8469.00000   11.80000    2.39000    0.19000   -9999.25    0.19000    2.26000    0.60000    0.40000   25.04000    3.68000    0.19753    2.71558    0.15616    0.20944    0.00000    0.77773    0.00080    0.02394   89.58059  650.00000    0.18244    0.10000   22.86838    0.00000    2.41911    1.00000
 8469.50000   11.08000    2.38000    0.20000   -9999.25    0.20000    2.13000    0.60000    0.40000   25.38000   24.13000    0.19951    2.71223    0.10217    0.48787    0.00000    0.77980    0.00080    0.01989    9.17509  650.00000    1.18011    0.10000   28.28176    0.00000   24.11723    1.00000
 8470.00000   10.01000    2.36000    0.21000   -9999.25    0.21000    2.02000    0.58000    0.42000   25.63000   85.13000    0.21216    2.69177    0.15960    0.24775    0.00000    0.77318    0.00079    0.01388    9.30368  650.00000    0.54704    0.10000   26.01103    0.00000   84.40325    1.00000
 8470.50000    9.16000    2.34000    0.22000   -9999.25    0.22000    1.91000    0.56000    0.44000   25.78000  105.42000    0.22564    2.69587    0.19577    0.13236    0.00000    0.76449    0.00077    0.00910   13.42403  650.00000    0.29286    0.10000   25.37893    0.00000  104.85250    1.00000
 8471.00000    9.09000    2.32000    0.24000   -9999.25    0.24000    1.82000    0.54000    0.46000   25.73000   46.67000    0.24336    2.70963    0.12442    0.48873    0.00000    0.74718    0.00076    0.00870   29.50240  650.00000    0.85183    0.10000   28.91165    0.00000   46.62117    1.00000
 8471.50000    9.52000    2.30000    0.25000   -9999.25    0.25000    1.76000    0.53000    0.47000   25.40000   11.45000    0.25282    2.70629    0.11737    0.53575    0.00000    0.73532    0.00075    0.01112   45.07118  650.00000    0.81350    0.10000   28.90583    0.00000    8.38801    1.00000
 8472.00000   10.01000    2.29000    0.25000   -9999.25    0.25000    1.72000    0.52000    0.48000   24.53000   21.91000    0.25380    2.70450    0.10707    0.57812    0.00000    0.73158    0.00075    0.01388   21.06172  650.00000    1.21588    0.10000   32.99134    0.00000   21.89992    1.00000
 8472.50000   10.69000    2.28000    0.25000   -9999.25    0.25000    1.72000    0.52000    0.48000   24.39000   36.77000    0.25653    2.70093    0.15043    0.41362    0.00000    0.72502    0.00074    0.01770   20.57406  650.00000    0.79312    0.10000   33.15053    0.00000   36.64941    1.00000
 8473.00000   11.45000    2.28000    0.25000   -9999.25    0.25000    1.72000    0.52000    0.48000   28.10000   74.75000    0.25653    2.70093    0.22493    0.12319    0.00000    0.72075    0.00074    0.02197   21.93953  650.00000    0.25992    0.10000   29.46512    0.00000   74.25621    1.00000
 8473.50000   11.47000    2.28000    0.25000   -9999.25    0.25000    1.70000    0.53000    0.47000   31.80000  112.73000    0.25653    2.70093    0.21531    0.16071    0.00000    0.72064    0.00074    0.02209   55.28960  650.00000    0.21565    0.10000   29.03349    0.00000  112.13133    1.00000
 8474.00000   10.89000    2.28000    0.24000   -9999.25    0.25000    1.65000    0.54000    0.46000   29.20000   58.71000    0.25558    2.68828    0.22520    0.11888    0.00000    0.72485    0.00074    0.01882   23.68127  650.00000    0.24553    0.10000   29.41041    0.00000   58.47396    1.00000
 8474.50000   10.99000    2.27000    0.25000   -9999.25    0.26000    1.59000    0.53000    0.47000   26.60000    4.68000    0.26769    2.68338    0.19317    0.27839    0.00000    0.71219    0.00073    0.01939   93.45388  650.00000    0.25865    0.10000   31.62712    0.00000    4.65968    1.00000
 8475.00000   11.46000    2.26000    0.26000   -9999.25    0.26000    1.55000    0.53000    0.47000   26.60000    3.98000    0.26995    2.68015    0.19572    0.27499    0.00000    0.70729    0.00073    0.02203   94.23532  650.00000    0.25411    0.10000   31.56845    0.00000    3.98110    1.00000
 8475.50000   11.50000    2.25000    0.27000   -9999.25    0.27000    1.53000    0.52000    0.48000   26.63000    3.53000    0.28272    2.68462    0.20980    0.25792    0.00000    0.69431    0.00072    0.02225   86.65669  650.00000    0.25683    0.10000   31.81476    0.00000    3.55657    1.00000
 8476.00000   11.14000    2.25000    0.26000   -9999.25    0.27000    1.52000    0.52000    0.48000   26.79000    4.37000    0.27145    2.67801    0.19939    0.26545    0.00000    0.70759    0.00073    0.02023   89.67731  650.00000    0.25307    0.10000   31.69570    0.00000    4.36901    1.00000
 8476.50000   10.62000    2.25000    0.26000   -9999.25    0.26000    1.51000    0.53000    0.47000   26.90000    5.22000    0.27145    2.67801    0.19857    0.26849    0.00000    0.71051    0.00073    0.01731   90.62057  650.00000    0.25312    0.10000   31.66811    0.00000    4.21330    1.00000
 8477.00000   10.37000    2.26000    0.25000   -9999.25    0.26000    1.48000    0.55000    0.45000   26.90000    6.09000    0.27029    2.67969    0.19821    0.26669    0.00000    0.71308    0.00073    0.01590   84.42146  650.00000    0.26235    0.10000   31.92419    0.00000    6.07832    1.00000
 8477.50000   10.64000    2.25000    0.25000   -9999.25    0.26000    1.46000    0.55000    0.45000   26.86000    6.66000    0.27144    2.67805    0.18423    0.32127    0.00000    0.71042    0.00073    0.01742   54.15884  650.00000    0.40448    0.10000   34.21735    0.00000    6.64701    1.00000
 8478.00000   11.31000    2.25000    0.25000   -9999.25    0.26000    1.46000    0.55000    0.45000   26.63000    5.67000    0.27144    2.67805    0.20090    0.25986    0.00000    0.70665    0.00073    0.02119   84.18476  650.00000    0.25531    0.10000   31.87628    0.00000    5.66925    1.00000
 8478.50000   11.79000    2.25000    0.25000   -9999.25    0.26000    1.48000    0.54000    0.46000   26.40000    4.68000    0.27144    2.67805    0.19906    0.26662    0.00000    0.70395    0.00073    0.02388   87.99815  650.00000    0.25306    0.10000   31.74545    0.00000    4.68128    1.00000
 8479.00000   11.45000    2.25000    0.24000   -9999.25    0.26000    1.51000    0.54000    0.46000   27.15000    4.60000    0.27145    2.67801    0.19859    0.26843    0.00000    0.70585    0.00073    0.02197   88.39159  650.00000    0.25302    0.10000   31.73349    0.00000    4.60073    1.00000
 8479.50000   10.61000    2.25000    0.24000   -9999.25    0.26000    1.55000    0.54000    0.46000   27.90000    4.52000    0.27145    2.67801    0.19805    0.27042    0.00000    0.71057    0.00073    0.01725   88.83438  650.00000    0.25303    0.10000   31.72042    0.00000    4.51801    1.00000
 8480.00000    9.67000    2.26000    0.25000   -9999.25    0.26000    1.60000    0.53000    0.47000   27.10000    4.24000    0.27029    2.67969    0.19447    0.28054    0.00000    0.71701    0.00073    0.01197   92.00369  650.00000    0.25441    0.10000   31.63706    0.00000    4.24575    1.00000
