~Version ---------------------------------------------------
VERS.   2.0 : CWLS log ASCII Standard -VERSION 2.0
WRAP.    NO : One line per depth step
DLM . SPACE : Column Data Section Delimiter
~Well ------------------------------------------------------
STRT.ft 8440.00000 : START DEPTH
STOP.ft 8630.00000 : STOP DEPTH
STEP.ft    0.50000 : STEP
NULL.     -9999.25 : NULL VALUE
COMP.              : COMPANY
WELL.        HW-10 : 
FLD .        COSTA : 
LOC .              : LOCATION
PROV.              : PROVINCE
CNTY.              : COUNTY
STAT.              : STATE
CTRY.              : COUNTRY
SRVC.              : SERVICE COMPANY
DATE.              : DATE
UWI .        HW-10 : 
API .              : API NUMBER
~Curve Information -----------------------------------------
DEPT       .ft    : 
GR         .GAPI  : 
RHOB       .G/C3  : 
NPHI       .V/V   : 
DT         .US/F  : 
PHIE       .V/V   : 
RT         .OHMM  : 
SW         .V/V   : 
SO         .V/V   : 
CORE_POR   .%     : 
CORE_PERM  .mD    : 
PHIT       .V/V   : 
Rho_Matrix .G/C3  : 
BVO_Thomeer.V/V   : 
Sw_Thomeer .V/V   : 
Vol_Quartz .V/V   : 
Vol_Calcite.V/V   : 
Vol_dolo   .V/V   : 
Vol_Illite .V/V   : 
Pd1_knn    .psi   : 
Pd2_knn    .psi   : 
G1_knn     .      : 
G2_knn     .      : 
BV1_knn    .%     : 
BV2_knn    .%     : 
Perm_knn   .mD    : 
ROCK_INDEX .      : 
~Params ----------------------------------------------------
~Other -----------------------------------------------------
~ASCII -----------------------------------------------------
# ...
 8602.00000    8.78000    2.45000    0.17000   -9999.25    0.16000    0.78000   -9999.25   -9999.25   22.60000    1.16000    0.15939    2.72082    0.00200    0.98745    0.00000    0.50090    0.33274    0.00696  165.48363  650.00000    0.13671    0.10000   18.91793    0.00000    1.15917    3.00000
 8602.50000    8.68000    2.48000    0.14000   -9999.25    0.14000    0.95000   -9999.25   -9999.25   21.55000    0.98000    0.14162    2.70951    0.00200    0.98588    0.00000    0.42314    0.42884    0.00640  134.10412  650.00000    0.27671    0.10000   15.86098    0.00000    0.97955    3.00000
 8603.00000    9.07000    2.51000    0.12000   -9999.25    0.12000    1.15000   -9999.25   -9999.25   20.53000    0.75000    0.11863    2.70399    0.00200    0.98314    0.00000    0.36014    0.51263    0.00859   77.40652  650.00000    0.41204    0.10000   14.16786    0.00000    0.75351    3.00000
 8603.50000    9.21000    2.53000    0.11000   -9999.25    0.10000    1.36000   -9999.25   -9999.25   19.50000    0.51000    0.11038    2.70929    0.00200    0.98188    0.00000    0.33725    0.54299    0.00938   78.25582  650.00000    0.42053    0.10000   14.15427    0.00000    0.50926    3.00000
 8604.00000    9.02000    2.56000    0.10000   -9999.25    0.09000    1.51000   -9999.25   -9999.25   16.37000    0.47000    0.09930    2.71268    0.00200    0.97986    0.00000    0.27904    0.61335    0.00831   65.66739  650.00000    0.37143    0.10000   11.51937    0.00000    0.46983    1.00000
 8604.50000    8.82000    2.58000    0.09000   -9999.25    0.08000    1.55000   -9999.25   -9999.25   15.32000    0.41000    0.08620    2.72179    0.00200    0.97680    0.00000    0.21247    0.69415    0.00719  333.56683  650.00000    0.27304    0.10000    9.10139    0.00000    0.40999    3.00000
 8605.00000    9.10000    2.60000    0.08000   -9999.25    0.07000    1.30000   -9999.25   -9999.25   15.36000    0.32000    0.07456    2.73439    0.00200    0.97317    0.00000    0.18636    0.73033    0.00876  495.16798  650.00000    2.12903    0.10000   14.37591    0.00000    0.08114    3.00000
 8605.50000    9.37000    2.59000    0.09000   -9999.25    0.08000    1.15000   -9999.25   -9999.25   15.40000    0.24000    0.08717    2.73814    0.00200    0.97706    0.00000    0.25570    0.64685    0.01028  500.21458  650.00000    0.30236    0.10000    8.46996    0.00000    0.24003    3.00000
 8606.00000    9.08000    2.56000    0.10000   -9999.25    0.09000    1.02000   -9999.25   -9999.25   15.25000    0.23000    0.09930    2.71268    0.00200    0.97986    0.00000    0.28337    0.60868    0.00865  462.17146  650.00000    0.43582    0.10000   10.13932    0.00000    0.23005    3.00000
 8606.50000    8.73000    2.53000    0.11000   -9999.25    0.11000    0.91000   -9999.25   -9999.25   15.11000    0.21000    0.11038    2.70929    0.00200    0.98188    0.00000    0.30257    0.58036    0.00668  290.58922  650.00000    0.45039    0.10000   14.66314    0.00000    0.21004    3.00000
 8607.00000    8.69000    2.52000    0.12000   -9999.25    0.12000    0.82000   -9999.25   -9999.25   14.96000    0.20000    0.11752    2.70483    0.00200    0.98298    0.00000    0.32798    0.54805    0.00646  204.61741  650.00000    0.30107    0.10000   16.39332    0.00000    0.20001    3.00000
 8607.50000    8.95000    2.50000    0.13000   -9999.25    0.13000    0.75000   -9999.25   -9999.25   14.81000    0.19000    0.12960    2.72189    0.00200    0.98457    0.00000    0.39483    0.46765    0.00792  207.16724  650.00000    0.30423    0.10000   16.37876    0.00000    0.18992    3.00000
 8608.00000    8.95000    2.48000    0.15000   -9999.25    0.14000    0.70000   -9999.25   -9999.25   14.66000    0.17000    0.14341    2.72198    0.00200    0.98605    0.00000    0.44955    0.39912    0.00792  219.50758  650.00000    0.29549    0.10000   16.35665    0.00000    0.17006    3.00000
 8608.50000    8.56000    2.46000    0.16000   -9999.25    0.15000    0.67000   -9999.25   -9999.25   14.52000    0.16000    0.15505    2.70165    0.00200    0.98710    0.00000    0.46772    0.37151    0.00572  214.62221  650.00000    0.28042    0.10000   16.40268    0.00000    0.16009    3.00000
 8609.00000    7.98000    2.46000    0.17000   -9999.25    0.16000    0.66000   -9999.25   -9999.25   14.37000    0.15000    0.15861    2.72129    0.00200    0.98739    0.00000    0.43969    0.39924    0.00246  214.69105  650.00000    0.27986    0.10000   16.40358    0.00000    0.15000    3.00000
 8609.50000    7.44000    2.46000    0.17000   -9999.25    0.15000    0.66000   -9999.25   -9999.25   14.22000    0.13000    0.15861    2.72129    0.00200    0.98739    0.00000    0.40068    0.44129   -0.00057  218.84619  650.00000    0.28425    0.10000   16.38139    0.00000    0.13001    3.00000
 8610.00000    7.10000    2.46000    0.17000   -9999.25    0.15000    0.68000   -9999.25   -9999.25   14.91000    0.15000    0.15861    2.72129    0.00200    0.98739    0.00000    0.37611    0.46776   -0.00248  214.68978  650.00000    0.27986    0.10000   16.40359    0.00000    0.15000    3.00000
 8610.50000    7.00000    2.46000    0.17000   -9999.25    0.16000    0.72000   -9999.25   -9999.25   15.76000    0.17000    0.15861    2.72129    0.00200    0.98739    0.00000    0.36889    0.47555   -0.00305  210.86920  650.00000    0.27525    0.10000   16.42517    0.00000    0.17001    3.00000
 8611.00000    7.48000    2.45000    0.17000   -9999.25    0.16000    0.79000   -9999.25   -9999.25   16.40000    0.17000    0.15939    2.72082    0.00200    0.98745    0.00000    0.40699    0.43397   -0.00035  210.62665  650.00000    0.27487    0.10000   16.42670    0.00000    0.17004    3.00000
 8611.50000    8.42000    2.45000    0.16000   -9999.25    0.16000    0.90000   -9999.25   -9999.25   17.00000    0.18000    0.15631    2.69952    0.00200    0.98720    0.00000    0.46292    0.37584    0.00494  209.60775  650.00000    0.27409    0.10000   16.43156    0.00000    0.18005    3.00000
 8612.00000   10.67000    2.46000    0.16000   -9999.25    0.15000    1.06000   -9999.25   -9999.25   15.42000    0.16000    0.15505    2.70165    0.00200    0.98710    0.00000    0.62015    0.20722    0.01759  214.61358  650.00000    0.28041    0.10000   16.40273    0.00000    0.16012    3.00000
 8612.50000   17.32000    2.47000    0.14000   -9999.25    0.14000    1.31000   -9999.25   -9999.25   14.29000    0.14000    0.14654    2.70186    0.00200    0.98635    0.00000    0.79763    0.00085    0.05498  233.45256  650.00000    0.29878    0.10000   16.30517    0.00000    0.14006    3.00000
 8613.00000   26.99000    2.50000    0.12000   -9999.25    0.12000    1.68000   -9999.25   -9999.25   15.50000    0.15000    0.12830    2.69026    0.00200    0.98441    0.00000    0.76148    0.00087    0.10934  221.77303  650.00000    0.30494    0.10000   16.33033    0.00000    0.15001    3.00000
 8613.50000   32.13000    2.54000    0.10000   -9999.25    0.10000    2.22000   -9999.25   -9999.25   16.70000    0.16000    0.10111    2.70936    0.00200    0.98022    0.00000    0.75975    0.00090    0.13824  325.96987  650.00000    0.48180    0.10000   14.05473    0.00000    0.16000    3.00000
 8614.00000   28.35000    2.59000    0.08000   -9999.25    0.08000    3.06000   -9999.25   -9999.25   16.69000    0.16000    0.08209    2.71866    0.00200    0.97564    0.00000    0.80000    0.00092    0.11699  507.53078  650.00000    0.52331    0.10000    8.41851    0.00000    0.16000    3.00000
 8614.50000   20.21000    2.65000    0.07000   -9999.25    0.06000    4.37000   -9999.25   -9999.25   16.68000    0.16000    0.05662    2.73117    0.00200    0.96468    0.00000    0.87121    0.00094    0.07123  184.33208  650.00000    3.94268    0.10000   18.66012    0.00000    0.03700    3.00000
 8615.00000   15.36000    2.70000    0.06000   -9999.25    0.04000    6.38000   -9999.25   -9999.25   16.67000    0.16000    0.03423    2.75662    0.00200    0.94158    0.00000    0.47679    0.44502    0.04396 1188.34396  650.00000    1.79869    0.10000   14.13181    0.00000    0.16000    3.00000
