~Version ---------------------------------------------------
VERS.   2.0 : CWLS log ASCII Standard -VERSION 2.0
WRAP.    NO : One line per depth step
DLM . SPACE : Column Data Section Delimiter
~Well ------------------------------------------------------
STRT.ft 8440.00000 : START DEPTH
STOP.ft 8630.00000 : STOP DEPTH
STEP.ft    0.50000 : STEP
NULL.     -9999.25 : NULL VALUE
COMP.              : COMPANY
WELL.        HW-10 : 
FLD .        COSTA : 
LOC .              : LOCATION
PROV.              : PROVINCE
CNTY.              : COUNTY
STAT.              : STATE
CTRY.              : COUNTRY
SRVC.              : SERVICE COMPANY
DATE.              : DATE
UWI .        HW-10 : 
API .              : API NUMBER
~Curve Information -----------------------------------------
DEPT       .ft    : 
GR         .GAPI  : 
RHOB       .G/C3  : 
NPHI       .V/V   : 
DT         .US/F  : 
PHIE       .V/V   : 
RT         .OHMM  : 
SW         .V/V   : 
SO         .V/V   : 
CORE_POR   .%     : 
CORE_PERM  .mD    : 
PHIT       .V/V   : 
Rho_Matrix .G/C3  : 
BVO_Thomeer.V/V   : 
Sw_Thomeer .V/V   : 
Vol_Quartz .V/V   : 
Vol_Calcite.V/V   : 
Vol_dolo   .V/V   : 
Vol_Illite .V/V   : 
Pd1_knn    .psi   : 
Pd2_knn    .psi   : 
G1_knn     .      : 
G2_knn     .      : 
BV1_knn    .%     : 
BV2_knn    .%     : 
Perm_knn   .mD    : 
ROCK_INDEX .      : 
~Params ----------------------------------------------------
~Other -----------------------------------------------------
~ASCII -----------------------------------------------------
# ...
 8534.50000    8.51000    2.27000    0.24000   -9999.25    0.25000    0.51000    0.97000    0.03000   24.87000    2.26000    0.26088    2.68042    0.05886    0.77437    0.00000    0.73293    0.00074    0.00544  130.90231  650.00000    0.16983    0.10000   28.65823    0.00000    2.25879    1.00000
 8535.00000    8.75000    2.28000    0.23000   -9999.25    0.25000    0.53000    0.97000    0.03000   24.05000    2.06000    0.25311    2.68439    0.00100    0.99605    0.00000    0.73935    0.00075    0.00679  163.65432  650.00000    0.13632    0.10000   27.59799    0.00000    2.06055    3.00000
 8535.50000    9.06000    2.30000    0.23000   -9999.25    0.24000    0.56000    0.96000    0.04000   23.18000    1.75000    0.25108    2.68577    0.00200    0.99203    0.00000    0.73963    0.00075    0.00854  168.35434  650.00000    0.13366    0.10000   27.50420    0.00000    1.75235    3.00000
 8536.00000    9.06000    2.31000    0.23000   -9999.25    0.24000    0.61000    0.94000    0.06000   22.43000    1.29000    0.24214    2.70237    0.00366    0.98490    0.00000    0.74857    0.00076    0.00854  151.03629  650.00000    0.13675    0.10000   22.80775    0.00000    1.29033    3.00000
 8536.50000    9.04000    2.33000    0.22000   -9999.25    0.23000    0.67000    0.93000    0.07000   21.59000    0.89000    0.22632    2.69398    0.00200    0.99116    0.00000    0.76449    0.00077    0.00842  174.43240  650.00000    0.19381    0.10000   24.45425    0.00000    0.89164    3.00000
 8537.00000    9.82000    2.36000    0.21000   -9999.25    0.21000    0.74000    0.95000    0.05000   20.29000    0.76000    0.21216    2.69177    0.00200    0.99057    0.00000    0.77425    0.00079    0.01281  201.53524  650.00000    0.26953    0.10000   23.19143    0.00000    0.75998    3.00000
 8537.50000   11.29000    2.40000    0.18000   -9999.25    0.18000    0.81000   -9999.25   -9999.25   18.34000    0.58000    0.19367    2.69710    0.06697    0.65421    0.00000    0.78445    0.00081    0.02107  112.53651  650.00000    0.15597    0.10000   21.82419    0.00000    2.57792    3.00000
 8538.00000   12.26000    2.46000    0.15000   -9999.25    0.15000    0.87000   -9999.25   -9999.25   12.96000    0.13000    0.15516    2.70097    0.00200    0.98711    0.00000    0.73559    0.08272    0.02653  222.28404  650.00000    0.28759    0.10000   16.36362    0.00000    0.13093    3.00000
 8538.50000   11.93000    2.52000    0.13000   -9999.25    0.12000    0.91000   -9999.25   -9999.25   11.65000    0.07000    0.12892    2.72540    0.00200    0.98449    0.00000    0.60674    0.23966    0.02467  301.88107  650.00000    0.41241    0.10000   15.04160    0.00000    0.07011    3.00000
 8539.00000   10.69000    2.54000    0.13000   -9999.25    0.12000    0.91000   -9999.25   -9999.25   11.12000    0.07000    0.12249    2.73539    0.00200    0.98367    0.00000    0.49117    0.36864    0.01770  314.70811  650.00000    0.44158    0.10000   14.60893    0.00000    0.07003    3.00000
 8539.50000    9.51000    2.51000    0.15000   -9999.25    0.13000    0.87000   -9999.25   -9999.25   10.58000    0.08000    0.13950    2.72918    0.00200    0.98566    0.00000    0.47358    0.37586    0.01107  268.66843  650.00000    0.31753    0.10000   16.15414    0.00000    0.08010    3.00000
 8540.00000    8.91000    2.45000    0.17000   -9999.25    0.16000    0.80000   -9999.25   -9999.25   13.74000    0.33000    0.15939    2.72082    0.00200    0.98745    0.00000    0.51030    0.32262    0.00769  196.70999  650.00000    0.24262    0.10000   16.53638    0.00000    0.33054    3.00000
 8540.50000    8.56000    2.40000    0.20000   -9999.25    0.19000    0.72000   -9999.25   -9999.25   18.79000    0.70000    0.19607    2.71762    0.00200    0.98980    0.00000    0.63062    0.16758    0.00572  201.52871  650.00000    0.26497    0.10000   23.20118    0.00000    0.57535    3.00000
 8541.00000    8.34000    2.36000    0.22000   -9999.25    0.22000    0.62000   -9999.25   -9999.25   21.29000    1.39000    0.21513    2.71144    0.00100    0.99535    0.00000    0.69078    0.08961    0.00449  139.23481  650.00000    0.22109    0.10000   22.81198    0.00000    1.38985    3.00000
 8541.50000    8.38000    2.33000    0.24000   -9999.25    0.23000    0.55000   -9999.25   -9999.25   23.30000    2.13000    0.23834    2.71797    0.00200    0.99161    0.00000    0.75618    0.00076    0.00471  156.46189  650.00000    0.13520    0.10000   23.33416    0.00000    2.12980    3.00000
 8542.00000    8.58000    2.31000    0.24000   -9999.25    0.24000    0.48000   -9999.25   -9999.25   23.68000    2.17000    0.25175    2.70895    0.00200    0.99206    0.00000    0.74166    0.00075    0.00584  155.06221  650.00000    0.14426    0.10000   25.23964    0.00000    2.17210    1.00000
 8542.50000    8.80000    2.30000    0.25000   -9999.25    0.25000    0.44000   -9999.25   -9999.25   24.11000    2.23000    0.25282    2.70629    0.00200    0.99209    0.00000    0.73936    0.00075    0.00707  154.92482  650.00000    0.13922    0.10000   27.44602    0.00000    1.12991    3.00000
 8543.00000    8.82000    2.28000    0.25000   -9999.25    0.25000    0.40000   -9999.25   -9999.25   24.80000    2.37000    0.25653    2.70093    0.00200    0.99220    0.00000    0.73554    0.00074    0.00719  137.57449  650.00000    0.15462    0.10000   24.82493    0.00000    2.36757    1.00000
 8543.50000    8.82000    2.27000    0.25000   -9999.25    0.25000    0.38000   -9999.25   -9999.25   25.49000    2.50000    0.26769    2.68338    0.01278    0.95226    0.00000    0.72439    0.00073    0.00719  110.86866  650.00000    0.24458    0.10000   31.00020    0.00000    2.50026    1.00000
 8544.00000    9.02000    2.27000    0.25000   -9999.25    0.26000    0.36000   -9999.25   -9999.25   25.39000    1.81000    0.26769    2.68338    0.00255    0.99049    0.00000    0.72327    0.00073    0.00831  117.18223  650.00000    0.23988    0.10000   30.77603    0.00000    1.81240    1.00000
 8544.50000    9.29000    2.28000    0.25000   -9999.25    0.26000    0.35000   -9999.25   -9999.25   25.14000    0.97000    0.25653    2.70093    0.00200    0.99220    0.00000    0.73289    0.00074    0.00983  148.89398  650.00000    0.14234    0.10000   27.51866    0.00000    0.97105    3.00000
 8545.00000    9.38000    2.29000    0.25000   -9999.25    0.25000    0.35000   -9999.25   -9999.25   25.14000    1.25000    0.25380    2.70450    0.00200    0.99212    0.00000    0.73512    0.00075    0.01033  155.90772  650.00000    0.13913    0.10000   27.50079    0.00000    1.25018    3.00000
 8545.50000    8.99000    2.29000    0.25000   -9999.25    0.25000    0.35000   -9999.25   -9999.25   25.18000    1.73000    0.25380    2.70450    0.00200    0.99212    0.00000    0.73731    0.00075    0.00814  161.49134  650.00000    0.13716    0.10000   27.57976    0.00000    1.73410    3.00000
 8546.00000    8.64000    2.30000    0.25000   -9999.25    0.25000    0.35000   -9999.25   -9999.25   24.10000    1.23000    0.25282    2.70629    0.00200    0.99209    0.00000    0.74026    0.00075    0.00617  155.53566  650.00000    0.13900    0.10000   27.45329    0.00000    1.16249    3.00000
 8546.50000    8.77000    2.30000    0.24000   -9999.25    0.24000    0.37000   -9999.25   -9999.25   22.84000    0.48000    0.25299    2.70651    0.00200    0.99209    0.00000    0.73936    0.00075    0.00690  194.44002  650.00000    0.18114    0.10000   25.12150    0.00000    0.48087    3.00000
 8547.00000    9.26000    2.31000    0.22000   -9999.25    0.23000    0.40000   -9999.25   -9999.25   23.72000    1.15000    0.23265    2.68271    0.00200    0.99140    0.00000    0.75693    0.00077    0.00966  176.31140  650.00000    0.17563    0.10000   25.03873    0.00000    1.15293    3.00000
 8547.50000   10.27000    2.32000    0.21000   -9999.25    0.22000    0.44000   -9999.25   -9999.25   24.60000    1.82000    0.22901    2.67967    0.00200    0.99127    0.00000    0.75489    0.00077    0.01534  121.40195  650.00000    0.14613    0.10000   19.76217    0.00000    1.81971    3.00000
