~Version ---------------------------------------------------
VERS.   2.0 : CWLS log ASCII Standard -VERSION 2.0
WRAP.    NO : One line per depth step
DLM . SPACE : Column Data Section Delimiter
~Well ------------------------------------------------------
STRT.ft 8440.00000 : START DEPTH
STOP.ft 8630.00000 : STOP DEPTH
STEP.ft    0.50000 : STEP
NULL.     -9999.25 : NULL VALUE
COMP.              : COMPANY
WELL.        HW-10 : 
FLD .        COSTA : 
LOC .              : LOCATION
PROV.              : PROVINCE
CNTY.              : COUNTY
STAT.              : STATE
CTRY.              : COUNTRY
SRVC.              : SERVICE COMPANY
DATE.              : DATE
UWI .        HW-10 : 
API .              : API NUMBER
~Curve Information -----------------------------------------
DEPT       .ft    : 
GR         .GAPI  : 
RHOB       .G/C3  : 
NPHI       .V/V   : 
DT         .US/F  : 
PHIE       .V/V   : 
RT         .OHMM  : 
SW         .V/V   : 
SO         .V/V   : 
CORE_POR   .%     : 
CORE_PERM  .mD    : 
PHIT       .V/V   : 
Rho_Matrix .G/C3  : 
BVO_Thomeer.V/V   : 
Sw_Thomeer .V/V   : 
Vol_Quartz .V/V   : 
Vol_Calcite.V/V   : 
Vol_dolo   .V/V   : 
Vol_Illite .V/V   : 
Pd1_knn    .psi   : 
Pd2_knn    .psi   : 
G1_knn     .      : 
G2_knn     .      : 
BV1_knn    .%     : 
BV2_knn    .%     : 
Perm_knn   .mD    : 
ROCK_INDEX .      : 
~Params ----------------------------------------------------
~Other -----------------------------------------------------
~ASCII -----------------------------------------------------
# ...
 8521.00000    8.75000    2.27000    0.26000   -9999.25    0.26000    0.76000    0.76000    0.24000   26.30000    3.32000    0.26826    2.69579    0.13785    0.48612    0.00000    0.72421    0.00073    0.00679  102.09270  650.00000    0.25108    0.10000   31.31148    0.00000    3.31957    1.00000
 8521.50000    9.44000    2.27000    0.26000   -9999.25    0.26000    0.76000    0.76000    0.24000   26.10000    3.00000    0.26826    2.69579    0.13367    0.50173    0.00000    0.72034    0.00073    0.01067  104.95481  650.00000    0.24910    0.10000   31.21108    0.00000    3.00474    1.00000
 8522.00000   10.65000    2.28000    0.26000   -9999.25    0.26000    0.76000    0.77000    0.23000   26.10000    3.27000    0.26372    2.70577    0.12315    0.53303    0.00000    0.71807    0.00074    0.01747  111.11940  650.00000    0.24503    0.10000   30.99623    0.00000    3.26944    1.00000
 8522.50000   10.95000    2.29000    0.25000   -9999.25    0.25000    0.76000    0.79000    0.21000   26.10000    3.54000    0.25380    2.70450    0.12471    0.50863    0.00000    0.72629    0.00075    0.01916  130.21398  650.00000    0.17125    0.10000   28.48396    0.00000    3.55267    1.00000
 8523.00000   10.24000    2.30000    0.24000   -9999.25    0.24000    0.77000    0.81000    0.19000   26.07000    3.45000    0.25299    2.70651    0.11924    0.52870    0.00000    0.73109    0.00075    0.01517  133.07698  650.00000    0.16919    0.10000   28.41952    0.00000    3.45012    1.00000
 8523.50000    9.72000    2.31000    0.23000   -9999.25    0.24000    0.78000    0.83000    0.17000   26.02000    3.17000    0.24214    2.70237    0.10856    0.55166    0.00000    0.74486    0.00076    0.01225  146.14262  650.00000    0.13924    0.10000   22.12895    0.00000    3.16977    3.00000
 8524.00000   10.06000    2.31000    0.22000   -9999.25    0.23000    0.79000    0.84000    0.16000   26.30000    3.18000    0.23265    2.68271    0.13444    0.42214    0.00000    0.75243    0.00077    0.01416  119.15886  650.00000    0.14895    0.10000   19.13633    0.00000    3.18801    3.00000
 8524.50000   10.49000    2.30000    0.22000   -9999.25    0.23000    0.79000    0.83000    0.17000   26.75000    3.34000    0.24284    2.66851    0.11708    0.51789    0.00000    0.73982    0.00076    0.01658  128.77219  650.00000    0.16494    0.10000   22.54381    0.00000    3.36257    1.00000
 8525.00000   10.59000    2.29000    0.23000   -9999.25    0.24000    0.78000    0.81000    0.19000   25.99000    3.36000    0.25193    2.68526    0.10618    0.57855    0.00000    0.73018    0.00075    0.01714  136.34664  650.00000    0.16684    0.10000   28.34536    0.00000    3.35998    1.00000
 8525.50000   10.40000    2.28000    0.24000   -9999.25    0.25000    0.77000    0.80000    0.20000   24.60000    3.31000    0.25558    2.68828    0.11387    0.55448    0.00000    0.72761    0.00074    0.01607  130.34460  650.00000    0.17084    0.10000   28.54445    0.00000    3.31012    1.00000
 8526.00000    9.68000    2.28000    0.24000   -9999.25    0.25000    0.75000    0.80000    0.20000   26.15000    4.61000    0.25558    2.68828    0.12873    0.49632    0.00000    0.73165    0.00074    0.01202  116.24928  650.00000    0.18160    0.10000   28.73225    0.00000    4.60624    1.00000
 8526.50000    8.81000    2.27000    0.24000   -9999.25    0.25000    0.73000    0.80000    0.20000   27.70000    5.91000    0.26088    2.68042    0.08557    0.67200    0.00000    0.73125    0.00074    0.00713   97.28929  650.00000    0.37312    0.10000   32.83964    0.00000    5.91864    1.00000
 8527.00000    8.76000    2.26000    0.25000   -9999.25    0.26000    0.70000    0.80000    0.20000   27.05000    4.41000    0.27029    2.67969    0.13778    0.49026    0.00000    0.72213    0.00073    0.00685   91.00650  650.00000    0.25471    0.10000   31.66900    0.00000    4.41147    1.00000
 8527.50000    9.52000    2.26000    0.25000   -9999.25    0.26000    0.68000    0.81000    0.19000   26.42000    3.21000    0.27029    2.67969    0.12406    0.54103    0.00000    0.71786    0.00073    0.01112   99.78438  650.00000    0.25195    0.10000   31.38687    0.00000    3.21462    1.00000
 8528.00000    9.69000    2.26000    0.24000   -9999.25    0.26000    0.65000    0.84000    0.16000   25.90000    3.56000    0.26995    2.68015    0.12571    0.53431    0.00000    0.71724    0.00073    0.01208   97.35461  650.00000    0.25297    0.10000   31.46697    0.00000    3.56435    1.00000
 8528.50000    8.76000    2.27000    0.24000   -9999.25    0.25000    0.63000    0.86000    0.14000   25.38000    3.92000    0.26088    2.68042    0.12493    0.52113    0.00000    0.73153    0.00074    0.00685  114.68016  650.00000    0.18146    0.10000   29.02951    0.00000    3.92391    1.00000
 8529.00000    7.95000    2.27000    0.24000   -9999.25    0.25000    0.61000    0.87000    0.13000   25.72000    3.97000    0.26088    2.68042    0.12334    0.52724    0.00000    0.73608    0.00074    0.00229  114.32851  650.00000    0.18172    0.10000   29.03691    0.00000    3.96736    1.00000
 8529.50000    8.07000    2.27000    0.25000   -9999.25    0.26000    0.59000    0.88000    0.12000   26.50000    3.87000    0.26769    2.68338    0.09414    0.64834    0.00000    0.72861    0.00073    0.00297  114.61541  650.00000    0.24168    0.10000   30.86633    0.00000    2.11057    1.00000
 8530.00000    8.36000    2.27000    0.26000   -9999.25    0.26000    0.58000    0.87000    0.13000   26.83000    3.91000    0.26826    2.69579    0.11768    0.56131    0.00000    0.72641    0.00073    0.00460   97.33752  650.00000    0.25430    0.10000   31.47782    0.00000    3.90999    1.00000
 8530.50000    8.36000    2.26000    0.26000   -9999.25    0.26000    0.56000    0.89000    0.11000   27.11000    3.94000    0.26995    2.68015    0.12168    0.54925    0.00000    0.72472    0.00073    0.00460   94.52810  650.00000    0.25400    0.10000   31.55895    0.00000    3.93930    1.00000
 8531.00000    8.61000    2.27000    0.25000   -9999.25    0.26000    0.54000    0.91000    0.09000   27.14000    3.88000    0.26769    2.68338    0.11186    0.58214    0.00000    0.72557    0.00073    0.00601   98.49476  650.00000    0.25411    0.10000   31.44198    0.00000    3.87953    1.00000
 8531.50000    9.22000    2.27000    0.25000   -9999.25    0.25000    0.53000    0.94000    0.06000   27.18000    3.82000    0.26769    2.68338    0.10922    0.59200    0.00000    0.72214    0.00073    0.00943   98.99028  650.00000    0.25372    0.10000   31.42423    0.00000    3.81385    1.00000
 8532.00000    9.92000    2.28000    0.24000   -9999.25    0.25000    0.52000    0.97000    0.03000   27.07000    3.71000    0.25558    2.68828    0.08742    0.65795    0.00000    0.73030    0.00074    0.01337  125.27782  650.00000    0.17468    0.10000   28.61823    0.00000    3.71008    1.00000
 8532.50000   10.22000    2.28000    0.23000   -9999.25    0.25000    0.51000    0.98000    0.02000   26.80000    3.55000    0.25311    2.68439    0.07099    0.71952    0.00000    0.73108    0.00075    0.01506  131.37531  650.00000    0.17047    0.10000   28.44481    0.00000    3.55012    1.00000
 8533.00000    9.95000    2.27000    0.23000   -9999.25    0.25000    0.50000    0.99000    0.01000   26.26000    2.65000    0.25911    2.67536    0.07040    0.72829    0.00000    0.72661    0.00074    0.01354  130.99491  650.00000    0.16988    0.10000   28.63135    0.00000    2.64919    1.00000
 8533.50000    9.38000    2.26000    0.23000   -9999.25    0.25000    0.50000    0.99000    0.01000   25.73000    1.93000    0.25983    2.67351    0.02983    0.88520    0.00000    0.72910    0.00074    0.01033  148.20269  650.00000    0.14490    0.10000   27.88083    0.00000    1.93041    3.00000
 8534.00000    8.72000    2.26000    0.23000   -9999.25    0.25000    0.50000    0.98000    0.02000   25.30000    2.10000    0.25983    2.67351    0.06814    0.73775    0.00000    0.73281    0.00074    0.00662  131.34531  650.00000    0.15846    0.10000   24.80550    0.00000    2.10101    1.00000
