~Version ---------------------------------------------------
VERS.   2.0 : CWLS log ASCII Standard -VERSION 2.0
WRAP.    NO : One line per depth step
DLM . SPACE : Column Data Section Delimiter
~Well ------------------------------------------------------
STRT.ft 8440.00000 : START DEPTH
STOP.ft 8630.00000 : STOP DEPTH
STEP.ft    0.50000 : STEP
NULL.     -9999.25 : NULL VALUE
COMP.              : COMPANY
WELL.        HW-10 : 
FLD .        COSTA : 
LOC .              : LOCATION
PROV.              : PROVINCE
CNTY.              : COUNTY
STAT.              : STATE
CTRY.              : COUNTRY
SRVC.              : SERVICE COMPANY
DATE.              : DATE
UWI .        HW-10 : 
API .              : API NUMBER
~Curve Information -----------------------------------------
DEPT       .ft    : 
GR         .GAPI  : 
RHOB       .G/C3  : 
NPHI       .V/V   : 
DT         .US/F  : 
PHIE       .V/V   : 
RT         .OHMM  : 
SW         .V/V   : 
SO         .V/V   : 
CORE_POR   .%     : 
CORE_PERM  .mD    : 
PHIT       .V/V   : 
Rho_Matrix .G/C3  : 
BVO_Thomeer.V/V   : 
Sw_Thomeer .V/V   : 
Vol_Quartz .V/V   : 
Vol_Calcite.V/V   : 
Vol_dolo   .V/V   : 
Vol_Illite .V/V   : 
Pd1_knn    .psi   : 
Pd2_knn    .psi   : 
G1_knn     .      : 
G2_knn     .      : 
BV1_knn    .%     : 
BV2_knn    .%     : 
Perm_knn   .mD    : 
ROCK_INDEX .      : 
~Params ----------------------------------------------------
~Other -----------------------------------------------------
~ASCII -----------------------------------------------------
# ...
 8561.50000    9.06000    2.33000    0.25000   -9999.25    0.24000    0.35000   -9999.25   -9999.25   24.26000    2.55000    0.24011    2.73205    0.00200    0.99167    0.00000    0.75059    0.00076    0.00854  156.41750  650.00000    0.13542    0.10000   23.29172    0.00000    2.54915    3.00000
 8562.00000    9.46000    2.34000    0.25000   -9999.25    0.24000    0.37000   -9999.25   -9999.25   24.73000    2.42000    0.23805    2.73641    0.00200    0.99160    0.00000    0.75041    0.00076    0.01078  150.72982  650.00000    0.13731    0.10000   22.68978    0.00000    2.41684    3.00000
 8562.50000    8.88000    2.33000    0.25000   -9999.25    0.24000    0.38000   -9999.25   -9999.25   25.20000    2.29000    0.24011    2.73205    0.00200    0.99167    0.00000    0.75160    0.00076    0.00752  163.00765  650.00000    0.13304    0.10000   24.02324    0.00000    2.29091    3.00000
 8563.00000    8.03000    2.33000    0.25000   -9999.25    0.24000    0.37000   -9999.25   -9999.25   24.83000    2.51000    0.24011    2.73205    0.00200    0.99167    0.00000    0.75638    0.00076    0.00274  157.46673  650.00000    0.13504    0.10000   23.40841    0.00000    2.50984    3.00000
 8563.50000    7.54000    2.32000    0.25000   -9999.25    0.24000    0.36000   -9999.25   -9999.25   24.46000    2.73000    0.24985    2.71260    0.00200    0.99200    0.00000    0.74941    0.00075   -0.00001  150.39562  650.00000    0.14675    0.10000   24.88166    0.00000    2.73020    1.00000
 8564.00000    7.56000    2.31000    0.25000   -9999.25    0.25000    0.33000   -9999.25   -9999.25   25.22000    3.71000    0.25178    2.70802    0.00200    0.99206    0.00000    0.74737    0.00075    0.00010  130.88836  650.00000    0.17108    0.10000   28.40345    0.00000    3.71520    1.00000
 8564.50000    7.55000    2.31000    0.25000   -9999.25    0.25000    0.31000   -9999.25   -9999.25   26.20000    4.85000    0.25178    2.70802    0.00200    0.99206    0.00000    0.74742    0.00075    0.00005  117.78926  650.00000    0.18134    0.10000   28.52316    0.00000    4.80893    1.00000
 8565.00000    7.54000    2.30000    0.25000   -9999.25    0.25000    0.29000   -9999.25   -9999.25   25.66000    4.36000    0.25282    2.70629    0.00200    0.99209    0.00000    0.74645    0.00075   -0.00001  142.26206  650.00000    0.15162    0.10000   24.73821    0.00000    2.76110    1.00000
 8565.50000    7.68000    2.29000    0.26000   -9999.25    0.25000    0.28000   -9999.25   -9999.25   25.61000    4.36000    0.25441    2.70430    0.00200    0.99214    0.00000    0.74407    0.00075    0.00078  119.87847  650.00000    0.17908    0.10000   28.63349    0.00000    4.35175    1.00000
 8566.00000    7.71000    2.29000    0.26000   -9999.25    0.26000    0.26000   -9999.25   -9999.25   26.53000    5.29000    0.25441    2.70430    0.00200    0.99214    0.00000    0.74390    0.00075    0.00095  112.12588  650.00000    0.18517    0.10000   28.70180    0.00000    5.27460    1.00000
 8566.50000    7.59000    2.29000    0.27000   -9999.25    0.26000    0.25000   -9999.25   -9999.25   27.17000    5.99000    0.26546    2.71436    0.00200    0.99247    0.00000    0.73353    0.00073    0.00027   90.70895  650.00000    0.27216    0.10000   31.81410    0.00000    5.98921    1.00000
 8567.00000    7.52000    2.29000    0.26000   -9999.25    0.26000    0.24000   -9999.25   -9999.25   26.39000    5.46000    0.25441    2.70430    0.00200    0.99214    0.00000    0.74497    0.00075   -0.00012  111.04737  650.00000    0.18603    0.10000   28.70829    0.00000    5.43159    1.00000
 8567.50000    7.50000    2.29000    0.25000   -9999.25    0.25000    0.24000   -9999.25   -9999.25   25.60000    4.93000    0.25380    2.70450    0.00200    0.99212    0.00000    0.74569    0.00075   -0.00024  115.22731  650.00000    0.18287    0.10000   28.64526    0.00000    4.92916    1.00000
 8568.00000    7.64000    2.29000    0.25000   -9999.25    0.25000    0.23000   -9999.25   -9999.25   25.35000    3.53000    0.25380    2.70450    0.00200    0.99212    0.00000    0.74490    0.00075    0.00055  130.57584  650.00000    0.17097    0.10000   28.47929    0.00000    3.52702    1.00000
 8568.50000    7.95000    2.29000    0.26000   -9999.25    0.26000    0.23000   -9999.25   -9999.25   25.10000    2.13000    0.25441    2.70430    0.00200    0.99214    0.00000    0.74255    0.00075    0.00229  145.98383  650.00000    0.14957    0.10000   24.95806    0.00000    2.12950    1.00000
 8569.00000    8.56000    2.29000    0.27000   -9999.25    0.26000    0.22000   -9999.25   -9999.25   25.30000    2.29000    0.26546    2.71436    0.00200    0.99247    0.00000    0.72808    0.00073    0.00572  117.29300  650.00000    0.23814    0.10000   30.75919    0.00000    2.29068    1.00000
 8569.50000    9.48000    2.29000    0.27000   -9999.25    0.26000    0.22000   -9999.25   -9999.25   25.50000    2.44000    0.26546    2.71436    0.00200    0.99247    0.00000    0.72291    0.00073    0.01090  115.81444  650.00000    0.23956    0.10000   30.81413    0.00000    2.44121    1.00000
 8570.00000   10.22000    2.29000    0.27000   -9999.25    0.26000    0.22000   -9999.25   -9999.25   26.15000    2.84000    0.26546    2.71436    0.00200    0.99247    0.00000    0.71875    0.00073    0.01506  111.77701  650.00000    0.24353    0.10000   30.96501    0.00000    2.84172    1.00000
 8570.50000   10.27000    2.28000    0.26000   -9999.25    0.26000    0.22000   -9999.25   -9999.25   26.80000    3.23000    0.26372    2.70577    0.00200    0.99242    0.00000    0.72021    0.00074    0.01534  111.47568  650.00000    0.24461    0.10000   30.98236    0.00000    3.23320    1.00000
 8571.00000    9.63000    2.28000    0.26000   -9999.25    0.26000    0.22000   -9999.25   -9999.25   26.80000    3.19000    0.26372    2.70577    0.00200    0.99242    0.00000    0.72381    0.00074    0.01174  111.90516  650.00000    0.24410    0.10000   30.96566    0.00000    3.18988    1.00000
 8571.50000    9.21000    2.28000    0.27000   -9999.25    0.26000    0.22000   -9999.25   -9999.25   26.80000    3.16000    0.26611    2.71235    0.00200    0.99248    0.00000    0.72378    0.00073    0.00938  107.38572  650.00000    0.24761    0.10000   31.12722    0.00000    3.16071    1.00000
 8572.00000    9.21000    2.27000    0.27000   -9999.25    0.27000    0.22000   -9999.25   -9999.25   27.08000    3.15000    0.27090    2.69992    0.00200    0.99262    0.00000    0.71900    0.00073    0.00938   99.46006  650.00000    0.25212    0.10000   31.39776    0.00000    3.15067    1.00000
 8572.50000    8.77000    2.27000    0.27000   -9999.25    0.26000    0.22000   -9999.25   -9999.25   27.10000    3.08000    0.27090    2.69992    0.00200    0.99262    0.00000    0.72147    0.00073    0.00690  100.08133  650.00000    0.25190    0.10000   31.37767    0.00000    3.08081    1.00000
 8573.00000    7.84000    2.28000    0.26000   -9999.25    0.26000    0.22000   -9999.25   -9999.25   26.50000    2.89000    0.26372    2.70577    0.00200    0.99242    0.00000    0.73387    0.00074    0.00168  114.96221  650.00000    0.24055    0.10000   30.84716    0.00000    2.89012    1.00000
 8573.50000    7.14000    2.28000    0.25000   -9999.25    0.26000    0.23000   -9999.25   -9999.25   26.19000    2.82000    0.25653    2.70093    0.00200    0.99220    0.00000    0.74347    0.00226   -0.00226  134.97782  650.00000    0.16723    0.10000   28.49882    0.00000    2.81939    1.00000
 8574.00000    7.07000    2.27000    0.25000   -9999.25    0.26000    0.23000   -9999.25   -9999.25   26.44000    2.98000    0.26769    2.68338    0.00200    0.99253    0.00000    0.73231    0.00265   -0.00265  106.16183  650.00000    0.24825    0.10000   31.16859    0.00000    2.98312    1.00000
 8574.50000    7.28000    2.27000    0.25000   -9999.25    0.26000    0.23000   -9999.25   -9999.25   26.70000    3.15000    0.26769    2.68338    0.00200    0.99253    0.00000    0.73231    0.00147   -0.00147  104.63426  650.00000    0.24942    0.10000   31.22308    0.00000    3.14635    1.00000
