~Version ---------------------------------------------------
VERS.   2.0 : CWLS log ASCII Standard -VERSION 2.0
WRAP.    NO : One line per depth step
DLM . SPACE : Column Data Section Delimiter
~Well ------------------------------------------------------
STRT.ft 8440.00000 : START DEPTH
STOP.ft 8630.00000 : STOP DEPTH
STEP.ft    0.50000 : STEP
NULL.     -9999.25 : NULL VALUE
COMP.              : COMPANY
WELL.        HW-10 : 
FLD .        COSTA : 
LOC .              : LOCATION
PROV.              : PROVINCE
CNTY.              : COUNTY
STAT.              : STATE
CTRY.              : COUNTRY
SRVC.              : SERVICE COMPANY
DATE.              : DATE
UWI .        HW-10 : 
API .              : API NUMBER
~Curve Information -----------------------------------------
DEPT       .ft    : 
GR         .GAPI  : 
RHOB       .G/C3  : 
NPHI       .V/V   : 
DT         .US/F  : 
PHIE       .V/V   : 
RT         .OHMM  : 
SW         .V/V   : 
SO         .V/V   : 
CORE_POR   .%     : 
CORE_PERM  .mD    : 
PHIT       .V/V   : 
Rho_Matrix .G/C3  : 
BVO_Thomeer.V/V   : 
Sw_Thomeer .V/V   : 
Vol_Quartz .V/V   : 
Vol_Calcite.V/V   : 
Vol_dolo   .V/V   : 
Vol_Illite .V/V   : 
Pd1_knn    .psi   : 
Pd2_knn    .psi   : 
G1_knn     .      : 
G2_knn     .      : 
BV1_knn    .%     : 
BV2_knn    .%     : 
Perm_knn   .mD    : 
ROCK_INDEX .      : 
~Params ----------------------------------------------------
~Other -----------------------------------------------------
~ASCII -----------------------------------------------------
 8440.00000   31.66000    2.73000    0.07000   -9999.25    0.00000   17.62000   -9999.25   -9999.25   -9999.25   -9999.25    0.05656    2.80479    0.01392    0.75383    0.00000    0.80690    0.00094    0.13560  124.57028  650.00000    0.81855    0.10000    7.46054    0.00000    0.69725    1.00000
 8440.50000   30.61000    2.73000    0.06000   -9999.25    0.00000   19.01000   -9999.25   -9999.25   -9999.25   -9999.25    0.03763    2.78612    0.00101    0.97316    0.00000    0.83171    0.00096    0.12970   67.61561  650.00000    7.19214    0.10000   29.58159    0.00000    0.01894    3.00000
 8441.00000   29.37000    2.72000    0.06000   -9999.25    0.00000   20.33000   -9999.25   -9999.25   -9999.25   -9999.25    0.04181    2.78122    0.00104    0.97525    0.00000    0.83450    0.00096    0.12273   69.70646  650.00000    6.05889    0.10000   25.47301    0.00000    0.02075    3.00000
 8441.50000   28.05000    2.73000    0.05000   -9999.25    0.00000   21.58000   -9999.25   -9999.25   -9999.25   -9999.25    0.03558    2.78444    0.00100    0.97190    0.00000    0.84815    0.00096    0.11530  212.12795  650.00000    5.94205    0.10000   25.20749    0.00000    0.02817    3.00000
 8442.00000   27.10000    2.73000    0.05000   -9999.25    0.00000   22.79000   -9999.25   -9999.25   -9999.25   -9999.25    0.03558    2.78444    0.00100    0.97179    0.00000    0.85349    0.00096    0.10996   85.86583  650.00000    7.04227    0.10000   29.06139    0.00000    0.02240    3.00000
 8442.50000   26.20000    2.75000    0.06000   -9999.25    0.00000   24.12000   -9999.25   -9999.25   -9999.25   -9999.25    0.04831    2.80285    0.00200    0.95860    0.00000    0.84584    0.00095    0.10490  909.79176  650.00000    3.30387    0.10000   18.57721    0.00000    0.09672    3.00000
 8443.00000   25.70000    2.75000    0.06000   -9999.25    0.00000   25.53000   -9999.25   -9999.25   -9999.25   -9999.25    0.04831    2.80285    0.00200    0.95860    0.00000    0.84865    0.00095    0.10209  903.41002  650.00000    3.33970    0.10000   18.68554    0.00000    0.09465    3.00000
 8443.50000   26.20000    2.74000    0.06000   -9999.25    0.00000   26.56000   -9999.25   -9999.25   -9999.25   -9999.25    0.04762    2.80152    0.00200    0.95800    0.00000    0.84653    0.00095    0.10490  901.44798  650.00000    3.38346    0.10000   18.83698    0.00000    0.09326    3.00000
 8444.00000   26.74000    2.74000    0.05000   -9999.25    0.00000   26.72000   -9999.25   -9999.25   -9999.25   -9999.25    0.03367    2.78861    0.00200    0.94060    0.00000    0.85742    0.00097    0.10794  924.30592  650.00000    3.78232    0.10000   20.35131    0.00000    0.08765    3.00000
 8444.50000   26.31000    2.74000    0.05000   -9999.25    0.00000   26.20000   -9999.25   -9999.25   -9999.25   -9999.25    0.03367    2.78861    0.00200    0.94060    0.00000    0.85984    0.00097    0.10552  610.76178  650.00000    4.35977    0.10000   20.64932    0.00000    0.06456    3.00000
 8445.00000   26.06000    2.75000    0.04000   -9999.25    0.00000   25.54000   -9999.25   -9999.25   -9999.25   -9999.25    0.03680    2.79971    0.00200    0.94565    0.00000    0.85812    0.00096    0.10412 1116.31981  650.00000    1.65422    0.10000   13.38133    0.00000    0.13864    3.00000
 8445.50000   27.39000    2.75000    0.04000   -9999.25    0.00000   25.15000   -9999.25   -9999.25   -9999.25   -9999.25    0.03680    2.79971    0.00200    0.94565    0.00000    0.85065    0.00096    0.11159  952.20694  650.00000    3.60090    0.10000   19.78837    0.00000    0.09516    3.00000
 8446.00000   29.66000    2.74000    0.05000   -9999.25    0.00000   25.21000   -9999.25   -9999.25   -9999.25   -9999.25    0.03367    2.78861    0.00111    0.96710    0.00000    0.84101    0.00097    0.12436  129.98795  650.00000    3.26519    0.10000   14.51979    0.00000    0.01000    3.00000
 8446.50000   30.68000    2.73000    0.05000   -9999.25    0.00000   25.73000   -9999.25   -9999.25   -9999.25   -9999.25    0.03558    2.78444    0.00101    0.97171    0.00000    0.83336    0.00096    0.13009   72.02777  650.00000    7.06991    0.10000   29.10986    0.00000    0.01819    3.00000
 8447.00000   29.68000    2.73000    0.05000   -9999.25    0.00000   26.46000   -9999.25   -9999.25   -9999.25   -9999.25    0.03558    2.78444    0.00105    0.97050    0.00000    0.83898    0.00096    0.12447  111.14698  650.00000    4.17474    0.10000   18.10273    0.00000    0.01193    3.00000
 8447.50000   27.34000    2.73000    0.05000   -9999.25    0.00000   27.14000   -9999.25   -9999.25   -9999.25   -9999.25    0.03558    2.78444    0.00100    0.97190    0.00000    0.85214    0.00096    0.11131  381.28644  650.00000    5.04835    0.10000   22.37900    0.00000    0.04033    3.00000
 8448.00000   24.32000    2.74000    0.04000   -9999.25    0.00000   27.96000   -9999.25   -9999.25   -9999.25   -9999.25    0.03680    2.79938    0.00106    0.97114    0.00000    0.86790    0.00096    0.09433  125.59808  650.00000    3.70940    0.10000   16.37319    0.00000    0.01000    3.00000
 8448.50000   21.84000    2.75000    0.03000   -9999.25    0.00000   29.20000   -9999.25   -9999.25   -9999.25   -9999.25    0.03196    2.80229    0.00115    0.96413    0.00000    0.88668    0.00097    0.08039  134.04159  650.00000    2.93273    0.10000   13.14917    0.00000    0.01000    3.00000
 8449.00000   20.61000    2.75000    0.03000   -9999.25    0.00000   30.87000   -9999.25   -9999.25   -9999.25   -9999.25    0.03196    2.80229    0.00114    0.96419    0.00000    0.84580    0.04877    0.07347  134.04159  650.00000    2.93273    0.10000   13.14917    0.00000    0.01000    3.00000
 8449.50000   20.57000    2.75000    0.02000   -9999.25    0.00000   32.93000   -9999.25   -9999.25   -9999.25   -9999.25    0.01946    2.78361    0.00113    0.94214    0.00000    0.79386    0.11343    0.07325  215.31270  650.00000    1.70062    0.10000    8.15743    0.00000    0.01000    3.00000
 8450.00000   21.91000    2.74000    0.02000   -9999.25    0.00000   35.15000   -9999.25   -9999.25   -9999.25   -9999.25    0.01744    2.77540    0.00102    0.94149    0.00000    0.88309    0.01868    0.08078  235.45569  650.00000    2.06107    0.10000    9.69900    0.00000    0.01000    3.00000
 8450.50000   24.26000    2.74000    0.02000   -9999.25    0.00000   37.05000   -9999.25   -9999.25   -9999.25   -9999.25    0.01744    2.77540    0.00102    0.94152    0.00000    0.88758    0.00098    0.09400  235.45569  650.00000    2.06107    0.10000    9.69900    0.00000    0.01000    3.00000
 8451.00000   26.95000    2.73000    0.02000   -9999.25    0.00000   38.09000   -9999.25   -9999.25   -9999.25   -9999.25    0.00618    2.74246    0.00100    0.83828    0.00000    0.88370    0.00099    0.10912  409.27624  650.00000    3.65637    0.10000   16.90560    0.00000    0.02400    3.00000
 8451.50000   29.82000    2.74000    0.02000   -9999.25    0.00000   38.18000   -9999.25   -9999.25   -9999.25   -9999.25    0.01744    2.77540    0.00100    0.94267    0.00000    0.85632    0.00098    0.12526  328.64757  650.00000    3.96000    0.10000   17.76156    0.00000    0.02323    3.00000
 8452.00000   32.29000    2.74000    0.03000   -9999.25    0.00000   37.01000   -9999.25   -9999.25   -9999.25   -9999.25    0.02254    2.78327    0.00200    0.91128    0.00000    0.83734    0.00098    0.13914 1013.92998  650.00000    3.64918    0.10000   20.16539    0.00000    0.10487    3.00000
 8452.50000   33.67000    2.74000    0.03000   -9999.25    0.00000   33.18000   -9999.25   -9999.25   -9999.25   -9999.25    0.02254    2.78327    0.00200    0.91128    0.00000    0.82958    0.00098    0.14690 1204.60783  650.00000    1.85963    0.10000   14.40662    0.00000    0.16360    3.00000
 8453.00000   33.94000    2.74000    0.02000   -9999.25    0.00000   26.42000   -9999.25   -9999.25   -9999.25   -9999.25    0.01744    2.77540    0.00200    0.88535    0.00000    0.83315    0.00098    0.14842  616.23887  650.00000    4.05504    0.10000   19.44816    0.00000    0.06214    3.00000
