~Version ---------------------------------------------------
VERS.   2.0 : CWLS log ASCII Standard -VERSION 2.0
WRAP.    NO : One line per depth step
DLM . SPACE : Column Data Section Delimiter
~Well ------------------------------------------------------
STRT.ft 8440.00000 : START DEPTH
STOP.ft 8630.00000 : STOP DEPTH
STEP.ft    0.50000 : STEP
NULL.     -9999.25 : NULL VALUE
COMP.              : COMPANY
WELL.        HW-10 : 
FLD .        COSTA : 
LOC .              : LOCATION
PROV.              : PROVINCE
CNTY.              : COUNTY
STAT.              : STATE
CTRY.              : COUNTRY
SRVC.              : SERVICE COMPANY
DATE.              : DATE
UWI .        HW-10 : 
API .              : API NUMBER
~Curve Information -----------------------------------------
DEPT       .ft    : 
GR         .GAPI  : 
RHOB       .G/C3  : 
NPHI       .V/V   : 
DT         .US/F  : 
PHIE       .V/V   : 
RT         .OHMM  : 
SW         .V/V   : 
SO         .V/V   : 
CORE_POR   .%     : 
CORE_PERM  .mD    : 
PHIT       .V/V   : 
Rho_Matrix .G/C3  : 
BVO_Thomeer.V/V   : 
Sw_Thomeer .V/V   : 
Vol_Quartz .V/V   : 
Vol_Calcite.V/V   : 
Vol_dolo   .V/V   : 
Vol_Illite .V/V   : 
Pd1_knn    .psi   : 
Pd2_knn    .psi   : 
G1_knn     .      : 
G2_knn     .      : 
BV1_knn    .%     : 
BV2_knn    .%     : 
Perm_knn   .mD    : 
ROCK_INDEX .      : 
~Params ----------------------------------------------------
~Other -----------------------------------------------------
~ASCII -----------------------------------------------------
# ...
 8615.50000   15.28000    2.73000    0.03000   -9999.25    0.00000    9.25000   -9999.25   -9999.25   16.66000    0.16000    0.03261    2.78421    0.00200    0.93867    0.00000    0.46399    0.45989    0.04351 1204.48658  650.00000    1.83344    0.10000   14.30879    0.00000    0.16000    3.00000
 8616.00000   18.56000    2.72000    0.02000   -9999.25    0.00000   12.84000   -9999.25   -9999.25   -9999.25   -9999.25    0.00871    2.73148    0.00200    0.77028    0.00000    0.60741    0.32193    0.06195  309.12370  650.00000    2.87941    0.10000   13.32548    0.00000    0.01000    3.00000
 8616.50000   24.95000    2.72000    0.02000   -9999.25    0.00000   16.80000   -9999.25   -9999.25   -9999.25   -9999.25    0.00871    2.73148    0.00200    0.77028    0.00000    0.89243    0.00099    0.09788  309.12370  650.00000    2.87941    0.10000   13.32548    0.00000    0.01000    3.00000
 8617.00000   31.03000    2.72000    0.02000   -9999.25    0.00000   20.82000   -9999.25   -9999.25   -9999.25   -9999.25    0.00871    2.73148    0.00200    0.77028    0.00000    0.85824    0.00099    0.13206 1068.45992  650.00000    3.47968    0.10000   19.73294    0.00000    0.15553    3.00000
 8617.50000   31.84000    2.74000    0.02000   -9999.25    0.00000   24.39000   -9999.25   -9999.25   -9999.25   -9999.25    0.01744    2.77540    0.00200    0.88535    0.00000    0.84496    0.00098    0.13661  374.34516  650.00000    4.14992    0.10000   18.73287    0.00000    0.02909    3.00000
 8618.00000   26.57000    2.74000    0.03000   -9999.25    0.00000   26.72000   -9999.25   -9999.25   -9999.25   -9999.25    0.02254    2.78327    0.00200    0.91128    0.00000    0.86950    0.00098    0.10698  180.19650  650.00000    0.87026    0.10000    4.65741    0.00000    0.01000    3.00000
 8618.50000   20.07000    2.74000    0.04000   -9999.25    0.00000   27.47000   -9999.25   -9999.25   -9999.25   -9999.25    0.03680    2.79938    0.00200    0.94566    0.00000    0.82604    0.06672    0.07044  125.59808  650.00000    3.70940    0.10000   16.37319    0.00000    0.01000    3.00000
 8619.00000   18.30000    2.73000    0.04000   -9999.25    0.00000   26.87000   -9999.25   -9999.25   -9999.25   -9999.25    0.03557    2.78339    0.00200    0.94377    0.00000    0.69366    0.21029    0.06049  884.01974  650.00000    3.88750    0.10000   20.59844    0.00000    0.08118    3.00000
 8619.50000   21.09000    2.73000    0.03000   -9999.25    0.00000   25.79000   -9999.25   -9999.25   -9999.25   -9999.25    0.03261    2.78421    0.00200    0.93867    0.00000    0.88387    0.00734    0.07617  132.37898  650.00000    3.06646    0.10000   13.69978    0.00000    0.01000    3.00000
 8620.00000   23.94000    2.72000    0.02000   -9999.25    0.00000   25.38000   -9999.25   -9999.25   -9999.25   -9999.25    0.00871    2.73148    0.00200    0.77028    0.00000    0.89811    0.00099    0.09220  309.12370  650.00000    2.87941    0.10000   13.32548    0.00000    0.01000    3.00000
 8620.50000   23.75000    2.72000    0.02000   -9999.25    0.00000   25.62000   -9999.25   -9999.25   -9999.25   -9999.25    0.00871    2.73148    0.00200    0.77028    0.00000    0.89917    0.00099    0.09113  309.12370  650.00000    2.87941    0.10000   13.32548    0.00000    0.01000    3.00000
 8621.00000   20.75000    2.73000    0.02000   -9999.25    0.00000   25.79000   -9999.25   -9999.25   -9999.25   -9999.25    0.00618    2.74246    0.00200    0.67656    0.00000    0.75535    0.16420    0.07426  335.43230  650.00000    3.11246    0.10000   14.38241    0.00000    0.01220    3.00000
 8621.50000   17.28000    2.73000    0.02000   -9999.25    0.00000   25.64000   -9999.25   -9999.25   -9999.25   -9999.25    0.00618    2.74246    0.00200    0.67656    0.00000    0.50467    0.43439    0.05475  327.43073  650.00000    3.00243    0.10000   13.90343    0.00000    0.01000    3.00000
 8622.00000   14.57000    2.74000    0.02000   -9999.25    0.00000   25.17000   -9999.25   -9999.25   -9999.25   -9999.25    0.01744    2.77540    0.00200    0.88535    0.00000    0.35284    0.59020    0.03951  395.59616  650.00000    4.18326    0.10000   18.96339    0.00000    0.03176    3.00000
 8622.50000   14.18000    2.73000    0.02000   -9999.25    0.00000   24.56000   -9999.25   -9999.25   -9999.25   -9999.25    0.00618    2.74246    0.00200    0.67656    0.00000    0.28073    0.67577    0.03732  327.43073  650.00000    3.00243    0.10000   13.90343    0.00000    0.01000    3.00000
 8623.00000   16.85000    2.74000    0.02000   -9999.25    0.00000   24.49000   -9999.25   -9999.25   -9999.25   -9999.25    0.01744    2.77540    0.00200    0.88535    0.00000    0.51755    0.41267    0.05233  235.45569  650.00000    2.06107    0.10000    9.69900    0.00000    0.01000    3.00000
 8623.50000   19.69000    2.74000    0.02000   -9999.25    0.00000   25.32000   -9999.25   -9999.25   -9999.25   -9999.25    0.01744    2.77540    0.00200    0.88535    0.00000    0.72271    0.19154    0.06830  235.45569  650.00000    2.06107    0.10000    9.69900    0.00000    0.01000    3.00000
 8624.00000   19.71000    2.74000    0.02000   -9999.25    0.00000   26.58000   -9999.25   -9999.25   -9999.25   -9999.25    0.01744    2.77540    0.00200    0.88535    0.00000    0.72416    0.18998    0.06841  235.45569  650.00000    2.06107    0.10000    9.69900    0.00000    0.01000    3.00000
 8624.50000   17.37000    2.74000    0.02000   -9999.25    0.00000   27.57000   -9999.25   -9999.25   -9999.25   -9999.25    0.01744    2.77540    0.00200    0.88535    0.00000    0.55511    0.37219    0.05526  235.45569  650.00000    2.06107    0.10000    9.69900    0.00000    0.01000    3.00000
 8625.00000   16.18000    2.74000    0.02000   -9999.25    0.00000   27.82000   -9999.25   -9999.25   -9999.25   -9999.25    0.01744    2.77540    0.00200    0.88535    0.00000    0.46915    0.46484    0.04857  525.01231  650.00000    4.15148    0.10000   19.42243    0.00000    0.04867    3.00000
 8625.50000   18.52000    2.74000    0.02000   -9999.25    0.00000   27.22000   -9999.25   -9999.25   -9999.25   -9999.25    0.01744    2.77540    0.00200    0.88535    0.00000    0.63819    0.28264    0.06172  235.45569  650.00000    2.06107    0.10000    9.69900    0.00000    0.01000    3.00000
 8626.00000   22.32000    2.73000    0.02000   -9999.25    0.00000   26.27000   -9999.25   -9999.25   -9999.25   -9999.25    0.00618    2.74246    0.00200    0.67656    0.00000    0.86877    0.04195    0.08309  327.43073  650.00000    3.00243    0.10000   13.90343    0.00000    0.01000    3.00000
 8626.50000   24.29000    2.72000    0.02000   -9999.25    0.00000   25.27000   -9999.25   -9999.25   -9999.25   -9999.25    0.00871    2.73148    0.00200    0.77028    0.00000    0.89614    0.00099    0.09416  309.12370  650.00000    2.87941    0.10000   13.32548    0.00000    0.01000    3.00000
 8627.00000   23.68000    2.72000    0.03000   -9999.25    0.00000   24.01000   -9999.25   -9999.25   -9999.25   -9999.25    0.02209    2.75267    0.00200    0.90944    0.00000    0.88620    0.00098    0.09073  222.80044  650.00000    2.40064    0.10000   11.00779    0.00000    0.01308    3.00000
 8627.50000   22.48000    2.72000    0.03000   -9999.25    0.00000   22.56000   -9999.25   -9999.25   -9999.25   -9999.25    0.02209    2.75267    0.00200    0.90944    0.00000    0.89295    0.00098    0.08399  217.47798  650.00000    2.17931    0.10000   10.09317    0.00000    0.01259    3.00000
 8628.00000   23.40000    2.73000    0.04000   -9999.25    0.00000   21.26000   -9999.25   -9999.25   -9999.25   -9999.25    0.03557    2.78339    0.00200    0.94377    0.00000    0.87431    0.00096    0.08916  126.83556  650.00000    3.55863    0.10000   15.73867    0.00000    0.01000    3.00000
 8628.50000   27.49000    2.74000    0.04000   -9999.25    0.00000   20.30000   -9999.25   -9999.25   -9999.25   -9999.25    0.03680    2.79938    0.00200    0.94566    0.00000    0.85008    0.00096    0.11216  986.10682  650.00000    3.48313    0.10000   19.47479    0.00000    0.10275    3.00000
